{"html_attributions":[],"results":[{"formatted_address":"Thomasstraße 53, 12053 Berlin, Germany","geometry":{"location":{"lat":52.4723668,"lng":13.4334609},"viewport":{"northeast":{"lat":52.47375877989272,"lng":13.43479657989272},"southwest":{"lat":52.47105912010728,"lng":13.43209692010728}}},"icon":"https://maps.gstatic.com/mapfiles/place_api/icons/cafe-71.png","id":"e328be0a719dcec99467e2d19984c5109f1b0143","name":"Pee Pees Katzencafé","opening_hours":{"open_now":false,"weekday_text":[]},"photos":[{"height":2160,"html_attributions":["<a href=\"https://maps.google.com/maps/contrib/113953970636555552192/photos\">Peter Scheibe</a>"],"photo_reference":"CmRaAAAA_5pvMd4oLfJtbcGG_8qcCpT86Bt7YqKbFYZGiXUF8L4XpakcVupW-hfUaxqxc4rlM1P2Dq-oPM18j9i9fwCuQApT0cujotGn1Wo3xPlWGchGrTZunFK8GShe3VrRSH9hEhA_XdiV9kpxQkdJOIqDnusyGhRPZo7_CRTzZCX8IRrF0cC7zOwEMw","width":2880}],"place_id":"ChIJg4W_-5hPqEcRmmFFxi_ByW0","rating":4.3,"reference":"CmRbAAAAxnHINvypN-ae1TANQhPC1gQXy7lf3seR3FPpN9YdFLIeFDiRkEnYyxwsivxI6nZtn0evp5f1MZxnW8_jnCjwiqOzSna_Ri5MBF72KtY2FkAoqEfwKJWC4-5AXlhbFbyvEhDi34iAS5D_0P8RklQ-3gNKGhT6w5-TFD7xYBgbidHFsXD8i5wx_A","types":["cafe","store","food","point_of_interest","establishment"]},{"formatted_address":"Malchower Weg 68, 13053 Berlin, Germany","geometry":{"location":{"lat":52.555682,"lng":13.502889},"viewport":{"northeast":{"lat":52.55701752989272,"lng":13.50410597989272},"southwest":{"lat":52.55431787010728,"lng":13.50140632010728}}},"icon":"https://maps.gstatic.com/mapfiles/place_api/icons/cafe-71.png","id":"0c10f942a94547289165289882bd8d0ec4f2a7e1","name":"BaristaCats Katzencafé","opening_hours":{"open_now":false,"weekday_text":[]},"photos":[{"height":2592,"html_attributions":["<a href=\"https://maps.google.com/maps/contrib/101724328534543031493/photos\">Baristacats</a>"],"photo_reference":"CmRZAAAAT7cP9oyqaCiDDfIxDpf2qqq-RzOmhynopLRggHCpduSb7NvXNZPNo9_XvqPOWj6L0x3AlRaLVyMEJxSneGCHaoAjtMCUTBm3aQ0HxUzJ3SLoKZNTcDmn9F6p-F6_8YabEhDPbbNS4HkmmsEr7jSInpfeGhSOqwVLeDS4a8RzOcW9L7SBz5_J9w","width":3888}],"place_id":"ChIJUazIz0dMqEcR0hJVxzCV280","rating":4.6,"reference":"CmRbAAAA38QTsi7XEUKj9D9DoWTZuF8Nfs89BtYx2Qi8GFT-91tqt6x-zbrguJ2jAJv19s-Wu2t4zcGdyfKUVuqc8H-i0YlE6VvL4jmtIHy4vo5Ej5QUXzNrc0CAaRHjZurcw_YzEhDU62h2gpMxH1O2b_p-meXlGhTHZG8LY7oJktlvG3Ii8HYhGamtqw","types":["cafe","store","food","point_of_interest","establishment"]},{"formatted_address":"Wilmersdorfer Str. 158, 10585 Berlin, Germany","geometry":{"location":{"lat":52.5159687,"lng":13.3048806},"viewport":{"northeast":{"lat":52.51731402989272,"lng":13.30612792989272},"southwest":{"lat":52.51461437010728,"lng":13.30342827010728}}},"icon":"https://maps.gstatic.com/mapfiles/place_api/icons/cafe-71.png","id":"e4ee8e5c89fe57f84ec852253d5bac61143c9f2b","name":"Zur Mieze","opening_hours":{"open_now":true,"weekday_text":[]},"photos":[{"height":1152,"html_attributions":["<a href=\"https://maps.google.com/maps/contrib/100028853772523482160/photos\">A Google User</a>"],"photo_reference":"CmRaAAAAI97fDDXfHL9AiUtcOqg6pmJP6Z69ZbO2Tvkun_4FL4aBaonwH-IOQWb-nmK4oBusWvNjI8d9q61ItNvStmbHtOJwSK9BjfBt6QRq87C_YUpAatosYE6ZbcGlCVgC6cnVEhB9ca29YVC4AnfHffnbNvQuGhQQPe9Sxh-asCRGxjy2nxe7Z880MA","width":2048}],"place_id":"ChIJDwNfWiFRqEcRwL23FXC_Wk4","rating":4.4,"reference":"CmRbAAAACWw9Hrq1SGp2ZvoRV1b8r2FGDSwOKHmFW1RiXunOGIurOeOd8-zYfSZwq4pC86ib69rj8O_mSD-C1TSoeQjzBmmUjViiMgix73GKxhk_RyU-2lYZV3imYc1_aNI5AlK5EhD2i8knmc8qnnrPhoAdpDltGhQ_1MI0kfmNd-FqOm-pdG2m6T5atg","types":["cafe","food","point_of_interest","establishment"]},{"formatted_address":"Friedelstraße 31, 12047 Berlin, Germany","geometry":{"location":{"lat":52.49301999999999,"lng":13.42832},"viewport":{"northeast":{"lat":52.49437507989272,"lng":13.42954617989272},"southwest":{"lat":52.49167542010727,"lng":13.42684652010728}}},"icon":"https://maps.gstatic.com/mapfiles/place_api/icons/cafe-71.png","id":"a112574eb47c91bc5faa4591e1adf436891935ad","name":"Katie's Blue Cat","opening_hours":{"open_now":true,"weekday_text":[]},"photos":[{"height":3120,"html_attributions":["<a href=\"https://maps.google.com/maps/contrib/111115461148379590515/photos\">Valerie Hartwich</a>"],"photo_reference":"CmRaAAAAD83iDFS6JalRsEqtZICs3PC6I0A8QC7dDersFh0xp3-Qg3cHrtGrYRAi_QT4HAu8x0L-X1fN-emdQIPNeNeWqNPbJvHbfnl3WF6uDMjU8HnoeMrIt1td_SRt04TEVjEnEhCgmqLVgdFX0-JTb4HTcSmiGhTPL2u4lsU5lSFQJOc78q0liUB1bQ","width":4160}],"place_id":"ChIJUWl_SbRPqEcRxlHNQ38kfpk","rating":4.5,"reference":"CmRbAAAAEIMjZ7btIx9KyEnQSAdc14dw7q2BZs5Dfwg23b99SfYUT8eHiIXOFQyIh7loT4LgTHmbBXzLfndXbAFpCXCuruYrhsbXRANuw9bsIyTgFPNyrf8L6T8K1aW1p9upg5b_EhDTJ-UPpuf4GgdFggLZHuCiGhT2qfaaUVNCgWvg8hP3TcNn5-wgug","types":["cafe","bakery","store","food","point_of_interest","establishment"]}],"status":"OK"}