{"html_attributions":[],"results":[{"formatted_address":"1035 N Miami Ave, Miami, FL 33136, USA","geometry":{"location":{"lat":25.7845085,"lng":-80.19382569999999},"viewport":{"northeast":{"lat":25.78585547989272,"lng":-80.19255182010728},"southwest":{"lat":25.78315582010728,"lng":-80.19525147989272}}},"icon":"https://maps.gstatic.com/mapfiles/place_api/icons/cafe-71.png","id":"feefb964ae2aa9a6adc597eb580a6369bae16e81","name":"ALL DAY","opening_hours":{"open_now":false,"weekday_text":[]},"photos":[{"height":679,"html_attributions":["<a href=\"https://maps.google.com/maps/contrib/110638036631851006544/photos\">ALL DAY</a>"],"photo_reference":"CmRaAAAA-SCNQtyRCxseFfuhhKoLZ7llmOHZRNj2tfIWd42DXgxpkDkiUTUisy53uwLcpXdFFRBoj1vX9CFiNUDALiBb9hMnp06d8FqUC_GAl-NRxCVYZysCoJWggEh6IyepH0QpEhAlAP1ulY6ccFrQMWwugzqxGhRWAtBLOQ_HC8wKnztcgE0neJnbSw","width":1024}],"place_id":"ChIJ23awxKO22YgRT3o5P_CHuNM","price_level":2,"rating":4.6,"reference":"CmRbAAAAX-kh3jObU3eF5KcbS2n3UpUd8ZhOHxXN3wEwg4OxmJyFo2D4wvuQLDnqUDezUFkOWol6OqSCZYiuQWkk8QwJA_x3DUszrOVFDDWRUGWNlNPJXXA3hX300HJUTWo9ySCkEhBn9tMWEPnAMdD3L-MbgtryGhRqEBEifif7WCKQeiYhq0-GMOmCwQ","types":["cafe","bar","store","restaurant","food","point_of_interest","establishment"]},{"formatted_address":"4600 NE 2nd Ave #8, 3441, Miami, FL 33137, United States","geometry":{"location":{"lat":25.818042,"lng":-80.191735},"viewport":{"northeast":{"lat":25.81939182989272,"lng":-80.19038517010726},"southwest":{"lat":25.81669217010728,"lng":-80.19308482989271}}},"icon":"https://maps.gstatic.com/mapfiles/place_api/icons/restaurant-71.png","id":"26a6b793418623f6ea8f117e5658507975c536fe","name":"Lemoni Cafe","opening_hours":{"open_now":false,"weekday_text":[]},"photos":[{"height":3024,"html_attributions":["<a href=\"https://maps.google.com/maps/contrib/114198029282996047428/photos\">Anna Ganzya</a>"],"photo_reference":"CmRaAAAAEjUuncsi8rJ0PSUszdrQ6tBfn-N45YGcHA0ne7sBxIQREHT9BUhqrBP6WAtTKAlz3TDuz_5VirknOzhdp2uzLwWecKIJGmEgjTl8tL_v2qtT3ntFSmhyhgNXfGZoX4aiEhDi2xXAuVUNkrwltAIdlR3hGhSkiid86U6x6a3Z05FejNDsUXhSpg","width":4032}],"place_id":"ChIJo4b7oVmx2YgRfOFJzetBz0E","price_level":1,"rating":4.5,"reference":"CmRbAAAAE-sXcmDAcrrp5XSP-qjqe220mq-y1sJ1mg0-raD1Mk0GYN5HPumjYaMsUof8VSOLcsfQE9U3r4L8jZXNmVgJmH4AfJZrbMY1YfVWZr3qMujI_0RT-KbXrn6QwNByAHnuEhCVIU3M4LtMhRVMVac086rzGhT7lisjI5YRJ23l2JJ2fn3Z8j-g9A","types":["meal_delivery","cafe","meal_takeaway","store","restaurant","food","point_of_interest","establishment"]},{"formatted_address":"700 Ocean Dr, Miami Beach, FL 33139, USA","geometry":{"location":{"lat":25.7769584,"lng":-80.131709},"viewport":{"northeast":{"lat":25.77828232989272,"lng":-80.13021112010729},"southwest":{"lat":25.77558267010728,"lng":-80.13291077989273}}},"icon":"https://maps.gstatic.com/mapfiles/place_api/icons/cafe-71.png","id":"c0d19dec37f42a323c91771cc5a48a69beb5426d","name":"Craft Café","opening_hours":{"open_now":false,"weekday_text":[]},"photos":[{"height":1600,"html_attributions":["<a href=\"https://maps.google.com/maps/contrib/108010749146819001599/photos\">Craft Café</a>"],"photo_reference":"CmRaAAAAP8mHPudpd4iccre2LnUh2hxA6CLHivcV-rcV6jZ3d4oAlU5U1R-SQlt_f6iXLs8NG6LHy0XxLEwkHUB9HSTBGGEZD8y9Z3ujPwj4DKg3YmUuXPth8e6X7TGYX7JmJIrfEhDF7ryag5SHh55RxGSlqpRgGhTH2VAaYlnK8ViwoulPk6Efzjdxhg","width":1091}],"place_id":"ChIJAyDeV4202YgRrdr0PQCoD3g","price_level":1,"rating":3.8,"reference":"CmRbAAAAwHOaOhgEdfWr8lRPSGsFMFQKbFtZyEve1Y0wWzjf8ukt_GV84Yis_mE7DwgOS0GM9U7CGMKeeWNQBo11djzfyJlemDDhCj8c8VJrqaJeDxY9FAUPWOhLo1z2j5VW4RyBEhD5YtE6RfhChbdJMhexj741GhQJukgiOpDiFWJgxz5Bv9Us4n_1tQ","types":["cafe","bakery","store","restaurant","food","point_of_interest","establishment"]},{"formatted_address":"5701 Sunset Dr #126, South Miami, FL 33143, USA","geometry":{"location":{"lat":25.7056316,"lng":-80.2860348},"viewport":{"northeast":{"lat":25.70637067989272,"lng":-80.28465922010727},"southwest":{"lat":25.70367102010728,"lng":-80.28735887989272}}},"icon":"https://maps.gstatic.com/mapfiles/place_api/icons/cafe-71.png","id":"de082c57c34f187be9cf2660679ba1cda2a833a3","name":"Tea & Poets","opening_hours":{"open_now":false,"weekday_text":[]},"photos":[{"height":2988,"html_attributions":["<a href=\"https://maps.google.com/maps/contrib/102995357339589481398/photos\">Tea &amp; Poets</a>"],"photo_reference":"CmRaAAAA3E1S7J6FrAAPIIXSFhRDFFUByQ2ieCICTy4kTqpDWZ84zgF8LdTqLSRN3KFgp6VS9rnWFMi_n74Ln2nlcsp-017OYhx1BXrxJ-zc-kA9IUohDwDmdNlFTUBeqyHejZ-fEhAPv-s8mj-HN2S7PzAzDtDkGhRArr7YW4rOs3jtipf-htJsdCLDrw","width":5312}],"place_id":"ChIJjWumx_rH2YgRGbpt3_KSSjM","rating":4.8,"reference":"CmRbAAAAMwQ8iQuI6gdpE700oO5IANFeK3eT0l3t4M9zBovvoRYC_bpk8IBPnuJwUJFMsOEGnglJgERXFv8FmP8WnZpvsH-toaf-7e7xuN7bD73Dw_HVLkxRZhBJC3_DPJ8a0pP_EhAlaJ3bsAbN6r_3tuGW0Wu1GhSzC5OcxLRKz_URhfaVs7SQrrwPHw","types":["cafe","shopping_mall","bar","gym","store","health","food","point_of_interest","establishment"]},{"formatted_address":"2365 Wilton Dr, Wilton Manors, FL 33305, USA","geometry":{"location":{"lat":26.1582257,"lng":-80.13521519999999},"viewport":{"northeast":{"lat":26.15948607989272,"lng":-80.13381317010727},"southwest":{"lat":26.15678642010728,"lng":-80.13651282989272}}},"icon":"https://maps.gstatic.com/mapfiles/place_api/icons/cafe-71.png","id":"01ee931f964df11fe802bb242b65e934fda72884","name":"Good Luck Cat Cafe","opening_hours":{"open_now":false,"weekday_text":[]},"place_id":"ChIJMQrBx5sB2YgRHv7CVLpgXs0","rating":4.7,"reference":"CmRbAAAALysChkut1FRE-wM2gY2lwThZOdfRubxt4qDsBZijZH2BSaVNN2yzhKu8iB2Ge-dQRcTmmoAxx5jw-lwV6IFoSnC_hIY1_iBSNT0XzUkCaP8wvob9ny_LsatOqtfP39HbEhCQ6BSS2Zyahnl-9RY3nW_SGhTo525SDnXyUb_F2m6SaAZZYPaSkg","types":["cafe","food","point_of_interest","establishment"]}],"status":"OK"}