{"html_attributions":[],"results":[{"formatted_address":"10400, 115 Phayathai Rd, Thanon Phetchaburi, Ratchathewi, Bangkok 10400, Thailand","geometry":{"location":{"lat":13.7513364,"lng":100.5321943},"viewport":{"northeast":{"lat":13.75247527989272,"lng":100.5336630298927},"southwest":{"lat":13.74977562010728,"lng":100.5309633701073}}},"icon":"https://maps.gstatic.com/mapfiles/place_api/icons/cafe-71.png","id":"54661d9ae9caaafa0a9acb278b169dd1c9b4d10c","name":"Caturday Cat Cafe","opening_hours":{"open_now":true,"weekday_text":[]},"photos":[{"height":1484,"html_attributions":["<a href=\"https://maps.google.com/maps/contrib/115765201881407988501/photos\">Takimoto Hideki</a>"],"photo_reference":"CmRZAAAAua1VJqPb5r-V25x9DEdoGdcJ7Yxm_X-V9zWg-ORM_99q3j1bTadD-hJDPTwO-05IyLjqqi-jbzZp3IfwSKnfkBnzDq6m9SmgOdQ_13aLqfZDIf7I7pbKnxel5iq2cGeKEhAf9EYdJ6BPRUwvMbmP_rjQGhR06M8cbwm_t9H-OYSVGPIVkfy0Yw","width":1979}],"place_id":"ChIJ9_Clhsye4jARJu3QlfvyT0M","rating":4.5,"reference":"CmRbAAAAQhS_NsOAR0kgvlkzOHYyBF4hFrLM8Q63NNI8Y_nHc2lPUpE3sY8SD59UhILSeit3qJi5cGueH208u4EWFRzf4gYUwkJlvoGmjk8m8gM0k_J4mgNaBJ6eD0UIh9KnGsUNEhA5KU3BynI-beDgMPPOAUOiGhQ5cRJ03wFgw-HEQjTWyZAjXyRqxA","types":["cafe","food","point_of_interest","establishment"]},{"formatted_address":"3,4 ซอยศรีนครินทร์51 ถนนศรีนครินทร์ แขวงหนองบอน Prawet, Bangkok 10250, Thailand","geometry":{"location":{"lat":13.691736,"lng":100.650461},"viewport":{"northeast":{"lat":13.69308582989272,"lng":100.6518108298927},"southwest":{"lat":13.69038617010728,"lng":100.6491111701073}}},"icon":"https://maps.gstatic.com/mapfiles/place_api/icons/cafe-71.png","id":"2bbc12db42daec14d831800dfba833961a9b8a35","name":"Makura Cat Cafe'","opening_hours":{"open_now":true,"weekday_text":[]},"photos":[{"height":1152,"html_attributions":["<a href=\"https://maps.google.com/maps/contrib/114075412226605689935/photos\">Patcharawalai Mamao</a>"],"photo_reference":"CmRaAAAAdTPuGOOBG8Vyo7SeYZpW1WO6em1qq4APqVRqe589oLkEeJqTkpG7Y-GxyBxZ4MRmjIN2QVbgoZfnBv2T3woJr4xZn5Waajq8nQtEqj0OaocXspyMRGESSsXKmtks58_TEhDe0DnzxM0--qx94a9QdVuHGhSwGD69ret0agej499DvhzTbNez1g","width":2048}],"place_id":"ChIJy63hAnFgHTERfzYaRvW4TEk","rating":4.2,"reference":"CmRbAAAA1FzJfXIeQbktliAm0Pfyi6LWyZlVdMrezD76KjPesw3RB_fZ3hJlC2QPQE7g1cpz7CunA5WI8XxU5XJ9HU-391lqT1Ne1g4FrhjuJubi7sEmJ-jm1nTIWjf-lgPZZygaEhD5xkS_OH6rypBRK4ohn6XWGhTAL_RU9URCDyHSLCsU40sUah81fA","types":["cafe","restaurant","food","point_of_interest","establishment"]},{"formatted_address":"1/7-8 Prachathipatai Rd, Khwaeng Ban Phan Thom, Khet Phra Nakhon, Krung Thep Maha Nakhon 10200, Thailand","geometry":{"location":{"lat":13.760195,"lng":100.502861},"viewport":{"northeast":{"lat":13.76152337989272,"lng":100.5042479298927},"southwest":{"lat":13.75882372010728,"lng":100.5015482701073}}},"icon":"https://maps.gstatic.com/mapfiles/place_api/icons/cafe-71.png","id":"ed357b46fec443450ac4948b53f812ea7237124c","name":"Kitty Cat Cafe","opening_hours":{"open_now":true,"weekday_text":[]},"photos":[{"height":1378,"html_attributions":["<a href=\"https://maps.google.com/maps/contrib/114486751553986950311/photos\">Kitty Cat Cafe</a>"],"photo_reference":"CmRaAAAADkK1gvLGsL03cR_A1fFjfTb35GFbi5Tj2GgKFrvJb9afFuKYcrZ0BSDmpna3y46vW-rn5LNyiGAEn6nXcY24rV9mrtZZlOig4VBfEB2AHgTykpi0XjgKKsUMOTjJNcIJEhDHjERxNNcr2gdTd8gLl0d6GhRWr3kFTX2-TO8qV860zEi7vVLq4A","width":2448}],"place_id":"ChIJoS_TrQae4jARB4CYYGf2hGA","rating":4.1,"reference":"CmRbAAAAKhQsqQjOg9Ni347djjT_7tDToKdhPyWgRQIeWMpCNBsUY-bYirYXJw9gbL4073UuT0gA0v8gt6J_Y3JCyK7LEOn9Bp4Nhu-35TaJV8bPYkA6bIvZLa7Q5TArQ60E1DPjEhBLNel4SOTRixgG-9eOi56fGhSlZPh7twVtIYwdiDEU4fxnG3QJLA","types":["cafe","food","point_of_interest","establishment"]}],"status":"OK"}