{"html_attributions":[],"results":[{"formatted_address":"Kleiner Schäferkamp 24, 20357 Hamburg, Germany","geometry":{"location":{"lat":53.5671145,"lng":9.9684785},"viewport":{"northeast":{"lat":53.56839217989273,"lng":9.969929429892721},"southwest":{"lat":53.56569252010728,"lng":9.967229770107277}}},"icon":"https://maps.gstatic.com/mapfiles/place_api/icons/restaurant-71.png","id":"b619349f26c7f501bfc6addf929620aac0676143","name":"Café Katzentempel","opening_hours":{"open_now":true,"weekday_text":[]},"photos":[{"height":2048,"html_attributions":["<a href=\"https://maps.google.com/maps/contrib/102947545479287874311/photos\">A Google User</a>"],"photo_reference":"CmRaAAAAFX6Z90QViYCozbBhDVXF2nqxZUCrYCtTpErf9UL1g24hCYW0AMAIM-avqASgSf3bVWpRus6hRYJkuglXprrOKasPZB_goCpsoLZCa1OvdbnGJ2Ov2csr7XJTbRtR1_G4EhCcQJJF4JknpnDmanLYmGSiGhSL9bOZrsHP1T86CRHg5krTGBKwxw","width":1536}],"place_id":"ChIJRde-oUaPsUcRl1BJiXYOjww","rating":4.1,"reference":"CmRbAAAAXi0P5neWsIKSR3koSjtGMXsRhXRwUMLxg7YN8VOtM4aOb55pZCRq2i1khdS_TQ6sXY86B1UywxqKyuQwOlQVsyvntqaBu-gNf1Nc53X1jvLGixF1q38MdlU7qoTpiFMXEhAYUuFLSfJIqcZu9P8YxSsgGhSxMH9YvuevsQ-h4RguA36cp30mNw","types":["restaurant","food","point_of_interest","establishment"]},{"formatted_address":"Hansapl. 12, 20099 Hamburg, Germany","geometry":{"location":{"lat":53.55499200000001,"lng":10.012535},"viewport":{"northeast":{"lat":53.55631027989273,"lng":10.01379282989272},"southwest":{"lat":53.55361062010729,"lng":10.01109317010728}}},"icon":"https://maps.gstatic.com/mapfiles/place_api/icons/cafe-71.png","id":"d25813ac6418580275e636124f818d5614603097","name":"Arepa Café","opening_hours":{"open_now":true,"weekday_text":[]},"photos":[{"height":3096,"html_attributions":["<a href=\"https://maps.google.com/maps/contrib/116824073887942764219/photos\">Brita Flach</a>"],"photo_reference":"CmRaAAAAZRj-Qc1HzinQ3lLoah739ZwPuyR0WDCCOqe72rrE5DoIH7mspIQIFEYr4UYdIykV6Vx1Mj1wllcl-cufNs_sX7sviE7F3luihQyM1HaIkJLLE6-_dvVezNtXVzEfX4-IEhAP7Z6ujGKjnmdrKTv6hZfbGhR6wJH7_ntc9WYivU43kNJjfVWnHg","width":4128}],"place_id":"ChIJ4yzAC-eOsUcRVyhNMGc-rRo","rating":4.1,"reference":"CmRbAAAAxzMASEBKlfkmk5tcWZzHLW7oycmRsMc2MEHRuDVVn_vSdkQl7xAqrU8xzSmFNJzWLzpaeRZ7l11HE85RwvYgh1WcRjp3PCozEQINfQs0zd4ONJOsvtyc8F9U5tGGuHE2EhAR-ptQdYAVqZxpaBlUP8feGhT38AKGQrTT6wEC3zTXYYwvpz3rQg","types":["cafe","food","point_of_interest","establishment"]},{"formatted_address":"Abendrothsweg 54, 20251 Hamburg, Germany","geometry":{"location":{"lat":53.584395,"lng":9.974456},"viewport":{"northeast":{"lat":53.58568622989273,"lng":9.975857229892721},"southwest":{"lat":53.58298657010728,"lng":9.973157570107277}}},"icon":"https://maps.gstatic.com/mapfiles/place_api/icons/cafe-71.png","id":"111ae6d05b525e99f20956ec4dea7edcd943e8ff","name":"LA CAFFÈTTERIA - Café | Restaurant | Weinbar","opening_hours":{"open_now":true,"weekday_text":[]},"photos":[{"height":720,"html_attributions":["<a href=\"https://maps.google.com/maps/contrib/111478103475811765833/photos\">La Caffetteria Inh. Angela La Cognata</a>"],"photo_reference":"CmRaAAAAAmLMFbwNFA3mWuxHWHBniRrF4_Pht0BEgVcV760zSaCu8wMkK21EDkyoCCkN9PevbS59GwP_FsxqbBjqDkuhtTE61y_7jjGzkmoMzHPEiELhehvHF4c0-Jv0VGe513A_EhDWFZm89t5FQqh9U2UKpuEJGhTjnvkSvUvUae-kCd4_bgOp-O8G1Q","width":1080}],"place_id":"ChIJeWFyf7OIsUcRWN0Ncv9yjhE","rating":4.2,"reference":"CmRbAAAAwJk1pWTzOwW6hpCune3lJ_o24O-8V-ulHn4Uja-8PHImzMac_98Z6HaWWFfolHZHi0oBmeiHd8F2g1qayBHggDiszamlpdHFLQH-84hRQNeJ5BTs9LeSC_kVScuuzb_VEhC_zcpI7XOHV4o1-fokAoe0GhTnCQruqFObJ_l9CIcNsZPxSMPwwg","types":["cafe","bar","restaurant","food","point_of_interest","establishment"]},{"formatted_address":"Neuer Wall 10, 20354 Hamburg, Germany","geometry":{"location":{"lat":53.5525319,"lng":9.992429},"viewport":{"northeast":{"lat":53.55385427989271,"lng":9.99381247989272},"southwest":{"lat":53.55115462010727,"lng":9.991112820107276}}},"icon":"https://maps.gstatic.com/mapfiles/place_api/icons/shopping-71.png","id":"5fd1d2002823bf85409818f2fefe19c99e6c626e","name":"Nespresso Boutique Hamburg","opening_hours":{"open_now":true,"weekday_text":[]},"photos":[{"height":1836,"html_attributions":["<a href=\"https://maps.google.com/maps/contrib/115132905051998765417/photos\">Klaus-Dieter Floegel</a>"],"photo_reference":"CmRaAAAA7DCjeOvUtReY6IDCZ2MDRt-q2HyYiR1rsv4gJXZHrPbC2scSyyfAum14EMoF9YqQYSd09ApkUIUs9k8eRz65ewTjkAdya88mJ1vcQig5vIwnD7BW90DT_AOrRMX5xWkpEhDPSRz2RDOHAJJ8ooZG2-ySGhQxB3IqwngCQLyO6a-TxWVqGkJimw","width":3264}],"place_id":"ChIJNULd-huPsUcRH5Ua1j76Ogg","rating":4.4,"reference":"CmRbAAAAlr0CVIAE5VnIr__1IxjdYCBHpKFB3FbzC3QEIjx4pMwRtgu-x0bfxfo3hATtQ8UIWKhVRjhkcFrlLYUogViT5iOJKzqqUGbXI6PU2HvQPsQWAZ3-_MX716eq4METMd7DEhDL2wSGeOWQXJqvTr8UyhcMGhTUWp7BnWzIfNUXQjcf2bevsrcj-w","types":["cafe","clothing_store","store","food","point_of_interest","establishment"]},{"formatted_address":"Heegbarg 31, 22391 Hamburg, Germany","geometry":{"location":{"lat":53.6540577,"lng":10.0917399},"viewport":{"northeast":{"lat":53.65540752989272,"lng":10.09308972989272},"southwest":{"lat":53.65270787010728,"lng":10.09039007010728}}},"icon":"https://maps.gstatic.com/mapfiles/place_api/icons/cafe-71.png","id":"708164a110bfb7c31301a968bdacb9465693511a","name":"Nespresso Boutique Hamburg AEZ","opening_hours":{"open_now":true,"weekday_text":[]},"photos":[{"height":3036,"html_attributions":["<a href=\"https://maps.google.com/maps/contrib/102661002655493350573/photos\">Johannes Mirbach</a>"],"photo_reference":"CmRaAAAAlaASMLCs1jyTFs0zRD5ItKBAIGdkMGW9GuMOm1resI4ZIJaKQsmRZSXl2L3LZI2dhgi-y6smw--Y-8bNezkI5MZD5SWjia6_cKlyIifOpRYlCCsbZRh1Np8hgib2f5ydEhD6iVZnjphFy0RUYs2zl2Y3GhRUXajs6_D9w2sb3yzZKhKyWZxE6w","width":4048}],"place_id":"ChIJhYOS__uJsUcR6rw7O5ENZzo","rating":5,"reference":"CmRbAAAAha5QqWEDido6jkPVWEuOb2p5gIYeeIv_gTTvtUcDnV5wgQOEmwIH8SFb8AIoCQmKyImIt84mCsWEhyaTVup6U9E7bOXJl0MyRWl3w9yrsYoNkKH3Qb6heTNQ2O10YMlxEhDiJxdV1s9yEefMvck1FfnlGhTEojzsdOwOA0Nbe-QClkCd5gJdxw","types":["cafe","store","food","point_of_interest","establishment"]},{"formatted_address":"Rungedamm 37, 21035 Hamburg, Germany","geometry":{"location":{"lat":53.4964011,"lng":10.1129921},"viewport":{"northeast":{"lat":53.49775092989273,"lng":10.11434192989272},"southwest":{"lat":53.49505127010729,"lng":10.11164227010728}}},"icon":"https://maps.gstatic.com/mapfiles/place_api/icons/cafe-71.png","id":"d3668d17d6795749eb96a9086c50d5db9fc2d588","name":"Cha Cult GmbH","place_id":"ChIJkT1LxYKiY0ER40lijD9Cxms","reference":"CmRbAAAAteCvSE6MNho7M2Yb8uE_TyhAuvJWYYA3sh63_epOotcSRjrY5Ehp-YBFZgNw-Pvnc5FYBejtZsalopV9SSWFvturHW-4GsJ1H0mt-RhgMLeXppfduHP7refuo7ewQk0GEhCKVd9maMqiH2vRV0wWbXBYGhRTuA-Q4XnCC-m6bqrAw_L7miASuA","types":["cafe","store","food","point_of_interest","establishment"]},{"formatted_address":"Kleine Rainstraße 10, 22765 Hamburg, Germany","geometry":{"location":{"lat":53.55376,"lng":9.929450000000001},"viewport":{"northeast":{"lat":53.55512967989272,"lng":9.930783679892722},"southwest":{"lat":53.55243002010727,"lng":9.928084020107278}}},"icon":"https://maps.gstatic.com/mapfiles/place_api/icons/cafe-71.png","id":"b360b0f548560597032211466a26eb03580869d5","name":"Mikkels","opening_hours":{"open_now":true,"weekday_text":[]},"photos":[{"height":2268,"html_attributions":["<a href=\"https://maps.google.com/maps/contrib/111658755143865391602/photos\">Martin Schefzik</a>"],"photo_reference":"CmRaAAAAkrFfjShw0Sn5YhfcOu0Pg_J2gppS9L6QdWk3zQphe_dOJla14hUVfVWVoL7TVCcTDB6PHzhuxjGMDOtzWPDspPKPtQMKZQuL3MI2sErvot0LquPeDSDwDneyMb3Xd-yvEhC3APDL4am7CwZFPnruCUQiGhQkxVbiFdEpHxkDQbjn3ofsinxdzA","width":4032}],"place_id":"ChIJfUXedY-FsUcRN8OYTdHwkSA","rating":4.5,"reference":"CmRbAAAADAbUWJVOsTqO_o3gXbSIt_h6alyueCxircrl5ASVTHnDbTOIK5UVJWPrlpFYeF5TlJis4ZMfBoV2fg1o8JXKwYqlXRkcdgN1TV-JWPxA7JVjmL4itUeCcc--c8Y4Y78VEhD_oYAoEwZVc7svmrba9r75GhT0tvJSJk33hBiFXah44Gn2H39aZw","types":["cafe","bakery","store","food","point_of_interest","establishment"]},{"formatted_address":"St. Pauli-Landungsbrücken 10, 20359 Hamburg, Germany","geometry":{"location":{"lat":53.54543810000001,"lng":9.9637602},"viewport":{"northeast":{"lat":53.54675302989272,"lng":9.965108729892721},"southwest":{"lat":53.54405337010728,"lng":9.962409070107276}}},"icon":"https://maps.gstatic.com/mapfiles/place_api/icons/generic_business-71.png","id":"720afb45b4b5ba8357a2b67418429604e3ca832a","name":"Brücke 10","opening_hours":{"open_now":true,"weekday_text":[]},"photos":[{"height":2268,"html_attributions":["<a href=\"https://maps.google.com/maps/contrib/101508106642002496638/photos\">A. Matic</a>"],"photo_reference":"CmRaAAAA5Y7hrmhaeG8HakINqMssYT5K1C47GHaHRcdI4XAdorXY1opWx2W--83EttGmgyYdX70TwXUm0rd4zVv82cXkUh5qyZQ13wrNA0qS5ALOhwgs3X1Wy72tk-W3zWwsTZT3EhCChJDKsCYB_6pm6bOkTilwGhQH83eZF2iHuVrUhpW7RpsasrEYqA","width":4032}],"place_id":"ChIJ9YOYoXOPsUcR5wIUWkNF4AE","rating":4.6,"reference":"CmRbAAAAaKAi2ETnqQlwiUww2UFUPT4O8a0Tb9sn9uviqSg1dz-XjkGMdfd9nGVtGdvVwoXhx2cd5l1Jtc2lemSo9nVTB0_PGpqJLL2rG0ot96l4p8ZA1JJvbigr7f6wVzDMk9_eEhDBIVdGBkI5IRsjF2Bqkp3MGhQ6QmmtIl3qDwXgYimbbG5mUu7foQ","types":["cafe","store","restaurant","food","point_of_interest","establishment"]}],"status":"OK"}