{"html_attributions":[],"results":[{"formatted_address":"8 Taiyuan Rd, Xuhui Qu, Shanghai Shi, China","geometry":{"location":{"lat":31.2094091,"lng":121.4540866},"viewport":{"northeast":{"lat":31.21076907989272,"lng":121.4554872798927},"southwest":{"lat":31.20806942010728,"lng":121.4527876201073}}},"icon":"https://maps.gstatic.com/mapfiles/place_api/icons/cafe-71.png","id":"0409d672b645d3c49c7e6179f71e4f072c416645","name":"Cat-cafe bliss","place_id":"ChIJ00sN_a56sjURH0nurmcYzDk","rating":5,"reference":"CmRbAAAA8JF5C00QohZCjSiF4ti9cBecXAsp3Wj8b4M54kGSSaZ03fRzAZ7016BCcGl2-8XKEnV5wvYHsfxKZtx2zrrtHeKU_0WvUygsXiS-o-A2L18PbJjLaROqjQwgQoyNmP-vEhCg3M3jI1lY4dXHE1nwnRSYGhRGWrrOip88aPiKrDVqYD3U9K3R0w","types":["cafe","restaurant","food","point_of_interest","establishment"]},{"formatted_address":"China, Shanghai, Pudong, Changli Rd, 1742号层","geometry":{"location":{"lat":31.174362,"lng":121.496398},"viewport":{"northeast":{"lat":31.17578647989272,"lng":121.4977310298927},"southwest":{"lat":31.17308682010727,"lng":121.4950313701073}}},"icon":"https://maps.gstatic.com/mapfiles/place_api/icons/cafe-71.png","id":"15d69e84cd94ce05b4dc3cc808341e3c41d49c3d","name":"Cat Cafe","opening_hours":{"weekday_text":[]},"place_id":"ChIJR9-fV1d6sjUREJHN9KO8K1Y","rating":3,"reference":"CmRbAAAAhvVHR1v6imLNRqNpIX99UffGgiKovV82dSjro9f_w2zfLHUDyGMY6LcD24kK0z1xpEIlLEFQz5G93w7ha0dxllzwyYAXsB5bJ9uXQmqi_gWZoLsB8ullDm_HZcq9ypcHEhAtCqcFk6vqDkT9hMuYS7DDGhRQ7fGLbJUuJUGcSnH8Gh0vhCfePw","types":["cafe","store","food","point_of_interest","establishment"]}],"status":"OK"}