{"html_attributions":[],"results":[{"formatted_address":"516 E 15th St, Charlotte, NC 28206, USA","geometry":{"location":{"lat":35.2327116,"lng":-80.8256304},"viewport":{"northeast":{"lat":35.23412122989272,"lng":-80.82420077010727},"southwest":{"lat":35.23142157010727,"lng":-80.82690042989272}}},"icon":"https://maps.gstatic.com/mapfiles/place_api/icons/cafe-71.png","id":"c8364c3f98b9e44b2531562c574bd50062ddfbc2","name":"Mac Tabby Cat Cafe","opening_hours":{"open_now":false,"weekday_text":[]},"photos":[{"height":2988,"html_attributions":["<a href=\"https://maps.google.com/maps/contrib/102240472159729746451/photos\">A Google User</a>"],"photo_reference":"CmRaAAAA-AUm_uCuuW1N4SDowihy6quEuy3yQ1QnG6Pc0v-JVyxFpVgqUZkBXHQrlRKcO7YYGrvmfPYlgeNN71N_tSFjuO7EP8a8gkb1Zco2FL1RPaxEmUtVoqGdRhxXqra6_tpNEhBBeHhmotdRHRbxm3XOeRsrGhTADRNsciGj2gxrDEhBU1vEzqw_sQ","width":5312}],"place_id":"ChIJs5IwQRGgVogRaPNqaU0r0G0","rating":4.9,"reference":"CmRbAAAAVn6te44rQcz88M79iwf9lPBCzeOE1uqzZfitRfXBthtS_ujSo3pBB6aQBUqflV3DrlXthU0vDG1uQWkgaPXS27bHmyu58H_RLkkeeHRfuAl0BTqNChbkkurDPZddD7_hEhBrwMfc0q0BM-woY6VhnvszGhRbl3yabg0lySXpTep0jdaplWSN9w","types":["cafe","food","point_of_interest","establishment"]},{"formatted_address":"3748 Monroe Rd, Charlotte, NC 28205, USA","geometry":{"location":{"lat":35.198799,"lng":-80.795452},"viewport":{"northeast":{"lat":35.20030477989273,"lng":-80.79393637010729},"southwest":{"lat":35.19760512010728,"lng":-80.79663602989272}}},"icon":"https://maps.gstatic.com/mapfiles/place_api/icons/generic_business-71.png","id":"4c15cb874b7be57ba7deb87bbff5971bd1113720","name":"Daily Mews Cat Cafe (coming soon!)","photos":[{"height":1067,"html_attributions":["<a href=\"https://maps.google.com/maps/contrib/107563800433976958183/photos\">A Google User</a>"],"photo_reference":"CmRaAAAAVZr8XjOOLPNaR9vlFZmSxRyWPDAeaOiqF4HaTYTkdYlfktj0_Njq9miDuaNO65alaPGKB0J1bDdjiPUPWfhybtAhm5LSJmaFDTalytuPjKL30iRPYTzyMP-LGScw4XibEhCkRyT0MAlncMV5zT-J8KEqGhTPeWxCjKiP9c_9lM56WjShMjPhTw","width":1600}],"place_id":"ChIJ9Txs2BMgVIgRoeCW5Ex471A","reference":"CmRbAAAAc2iTeYvbntCdnMcy9i5y5AiRIpLEoOS7MlR3tjyZxcy967-cEzxfjKd6pCtKkP4XXhyZgyAnEn9AGAEwWoCVSt5aU5FCFqdUNFn8CPlVYXigYKXdWUmoUr9XICwLcwpZEhBjrNQIYq3C_5ZFrYZdsFJ8GhRs4cjTj5FF17ynkPNGwOEGUu-bow","types":["point_of_interest","establishment"]}],"status":"OK"}