{"html_attributions":[],"results":[{"formatted_address":"-ga,, 51-14 Myeongdong 2(i)-ga, Jung-gu, Seoul, South Korea","geometry":{"location":{"lat":37.5632012,"lng":126.9842344},"viewport":{"northeast":{"lat":37.56455102989273,"lng":126.9855842298927},"southwest":{"lat":37.56185137010728,"lng":126.9828845701073}}},"icon":"https://maps.gstatic.com/mapfiles/place_api/icons/cafe-71.png","id":"8b9ada37b770786077106c4983f7b24754dc9ac6","name":"Godabang Cat Cafe","opening_hours":{"open_now":true,"weekday_text":[]},"photos":[{"height":2620,"html_attributions":["<a href=\"https://maps.google.com/maps/contrib/111342664855883392298/photos\">Kyle Beatty</a>"],"photo_reference":"CmRaAAAA9ZZGB0mO1HUtqhSIVEVJC2IaESOSuFEYg6_6ITUUZHCi4acWNiWrCCymIG0NYVsdNs7AxTh985-ZxbDAvzfl70BXDONPKLXDd0dkMPq3xMEqklCU8er1KadPmPGLIv9GEhBygZSrFioLReslsn61YBjWGhSnRMHOSWahL8C6s7U9OqidyftPpg","width":4656}],"place_id":"ChIJS_MSN_CifDUREpGBwmlPWE4","rating":4.3,"reference":"CmRbAAAApZt_Zs2LMzA9vNxVjvURwLjJeTZXl7kU_FTIzeBEREahs7yk4PRhUImX9dIkVZ2qCtH3xwa6hrsJZC0nxHQc2giHMfxCRpT22BvSym6LCZUuApWkKgsWQNDOriZWTjQTEhB_e6k-qkYwT8MGypyb4fMbGhTC6VwfP4l2Hl8LzBC2RSIkFa4XlA","types":["cafe","food","point_of_interest","establishment"]},{"formatted_address":"South Korea, Seoul, Jung-gu, Chungmuro 2(i)-ga, 충무로2가 66-4","geometry":{"location":{"lat":37.561951,"lng":126.985469},"viewport":{"northeast":{"lat":37.56330082989273,"lng":126.9868188298927},"southwest":{"lat":37.56060117010729,"lng":126.9841191701072}}},"icon":"https://maps.gstatic.com/mapfiles/place_api/icons/cafe-71.png","id":"97297b6b57efe9354d4cacb67fa7038940498693","name":"고양이놀이터Cat Cafe Catplayground","opening_hours":{"open_now":true,"weekday_text":[]},"photos":[{"height":810,"html_attributions":["<a href=\"https://maps.google.com/maps/contrib/116989692503515728450/photos\">고양이놀이터Cat Cafe Catplayground</a>"],"photo_reference":"CmRaAAAAKAwpZ4023tgtVpzKFk9XM_xS8MIa8MSRjtWe4G9RhaTuQ4MOvusUJ3iV9bSmwiHct48I36p3ka2e0CpyKlyPtvPw1f54d3uK_Nsl4AOEkCkmZVONluL9eK9t9gh_BkbEEhDNu_o24q6iFllxiSR3NXXfGhRuzF1jPRhNSEJ7O5nf682I3eilcg","width":1440}],"place_id":"ChIJl9uaZfCifDURGRfX-D7QFHQ","rating":4.2,"reference":"CmRbAAAABkBmvHn_kUAGSrLCV6BfoVbTmbM9ribNSWLIVYYTAQFN7ltzTJwvAi_WtkQdpbg_QFrtZSzq4-2I8RsreE0G_SoSdggeR9Be5XuGygh7arCQaQLUKHaECeI7Zpao-TbaEhAdTXhkD8gloatY17mh_eZ8GhQPNXho1dO8aKlp5bHXwFSMg_A_0Q","types":["cafe","food","point_of_interest","establishment"]},{"formatted_address":"18 Hongik-ro 6-gil, Seogyo-dong, Mapo-gu, Seoul, South Korea","geometry":{"location":{"lat":37.5553183,"lng":126.9229403},"viewport":{"northeast":{"lat":37.55666812989272,"lng":126.9242901298927},"southwest":{"lat":37.55396847010727,"lng":126.9215904701072}}},"icon":"https://maps.gstatic.com/mapfiles/place_api/icons/cafe-71.png","id":"8b69e02f93a7e7cf254fa6c50ac3e17c0eb2e7db","name":"Cat Cafe","opening_hours":{"weekday_text":[]},"photos":[{"height":4048,"html_attributions":["<a href=\"https://maps.google.com/maps/contrib/116255877281560662591/photos\">Scott Wozniak</a>"],"photo_reference":"CmRaAAAAGgdUCNofSVPuCTrr_Xf_yFVdul-S-5X4NsLWB-TDYapuUvr-MZf_WWAf1ovuIC1fC_eEEdpMiUOPtaCPB4lhDF9R9oVD8Ery09L8tgHjNK1iimX27aJmHLEblCcyYBgFEhDLl-7rSt6dhwEl07P8a3WCGhR7AbOobC38mj1qh9seq5XjMnQnZw","width":3036}],"place_id":"ChIJZ6tdP8OYfDURDv707BFmzQ8","rating":5,"reference":"CmRbAAAAhJbSP282yhWqTrrQkCGMUR5dIFUFJ1fU2XS_wtuOw6VJofewvVInFV9lKDFQoSIQinU5yBnHzzmLcJ7GkE5ydBZi2jin3QHizVmJKTpCY-FZeK6tA_07F3qF1ALtS4V0EhCr_HNHV0NF5GBeO9cCYUphGhQEIbQ85a-c6ATTU5bEwIvT8IaR5A","types":["cafe","food","point_of_interest","establishment"]},{"formatted_address":"44-1 Insa-dong, Jongno-gu, Seoul, South Korea","geometry":{"location":{"lat":37.5719524,"lng":126.9868731},"viewport":{"northeast":{"lat":37.57330222989272,"lng":126.9882229298927},"southwest":{"lat":37.57060257010728,"lng":126.9855232701073}}},"icon":"https://maps.gstatic.com/mapfiles/place_api/icons/cafe-71.png","id":"d232539ff9b2a13fa25317580fd8dacbda19d175","name":"Cat cafe","opening_hours":{"open_now":true,"weekday_text":[]},"photos":[{"height":2988,"html_attributions":["<a href=\"https://maps.google.com/maps/contrib/105138301349921895774/photos\">Scott E. Schneider</a>"],"photo_reference":"CmRaAAAAHuqoq4MVucws3dv_QeRWCxSh5CqqmXr-gfMXEY-QrV6LF4p4iYcmNcN7Do6TIg-qsI6zHTwXA7XOGltIsdCOgcnQVlTRyRKZu6f5MEv0AtkLbuQo_TC5JddwcUtRSFsuEhDDKW_KSNVff-2G0a2DJgTzGhTkBAAqYJIqcJ73KlotLyy9A3djbg","width":5312}],"place_id":"ChIJDSfk-ueifDURoMmXqITCLKc","rating":4,"reference":"CmRbAAAApXxaFqs1X99bUzP9chXaLr_YSh940Qh6l1pdyroqeilvQ3JsM9sryXjtPTwcokoWIo99hBDMRgYTvRetvpTZA0GGXBfK8BzvBTzLNrFfYsYGhNpsPl-KB8j0vZEJeIUiEhBR9_acwD8_vT2Ip4pLZpqNGhSjUDUuAvTUpGhPVw0PeVBQG_qF0w","types":["cafe","food","point_of_interest","establishment"]},{"formatted_address":"162-17 Wausan-ro, Donggyo-dong, Mapo-gu, Seoul, South Korea","geometry":{"location":{"lat":37.5546937,"lng":126.9313849},"viewport":{"northeast":{"lat":37.55604352989272,"lng":126.9327347298927},"southwest":{"lat":37.55334387010728,"lng":126.9300350701073}}},"icon":"https://maps.gstatic.com/mapfiles/place_api/icons/cafe-71.png","id":"9144f9ecf4f91984f5f3fcd3f862d2fa23dd9c45","name":"Table A Cat Cafe","opening_hours":{"open_now":true,"weekday_text":[]},"photos":[{"height":2340,"html_attributions":["<a href=\"https://maps.google.com/maps/contrib/109446196328293035158/photos\">Lin-Aah Lee</a>"],"photo_reference":"CmRaAAAAv5NSIjE8XWZv8FZEm68AqpS0wh44sIikTIHEB7P6iLRBTsGZUpmRUuKaXmO6AM1Mz5l4d_dJtYBwpR4KGdN3fyE-0iOyehq1EX9vp7LWK2HmkwVeXsUBy23GW4s05XhpEhAyzTRv4H_POilhH20hbNZXGhStrJCGqjlRRHSP3ZvhFNrgXZzyMw","width":4160}],"place_id":"ChIJk26mFcCYfDURnat8qez0Eec","rating":4.3,"reference":"CmRbAAAAcWTnddKBcf5P1UkJuIgHKK6WcPzA-QrO7uicSH80TAClvvR_F-Ipiljiw9GzMj16PYzXaZJZ4qwugcXhkqBoDmQCpOxtN3NKZc9iMTaT6Nta1SQkLdgG-IfOXMFBDp4REhDLyIui-Uutw_QzGkc--m_BGhRc59errQwU80qch8h5J0shjtDpQw","types":["cafe","food","point_of_interest","establishment"]},{"formatted_address":"39 Baekjegobun-ro 41-gil, Songpa-dong, Songpa-gu, Seoul, South Korea","geometry":{"location":{"lat":37.5089418,"lng":127.1058788},"viewport":{"northeast":{"lat":37.51029162989272,"lng":127.1072286298927},"southwest":{"lat":37.50759197010727,"lng":127.1045289701073}}},"icon":"https://maps.gstatic.com/mapfiles/place_api/icons/cafe-71.png","id":"637d09e6743d67dc453900530ace2e2b1ad3d467","name":"Cat Cafe","opening_hours":{"open_now":true,"weekday_text":[]},"place_id":"ChIJH_4ZvZ-lfDUR729FtYnayk0","rating":2,"reference":"CmRbAAAAdTozPzU3Bx5GdQ6v7UGC12gRAI-1NUnPTa4U1ZOZY6Ivzk9k_F_PGJ4hWm58KGpDyLAz16ftRVaHvyjll-G3wxCEkip-ZDY9bsITxKUWNBXfh5fVsKbGrRvwzEjMIxJIEhDuKr7QiziHOo-D6eyHfNAtGhQSDGsF43mMA61H9PKXs08Dcw1kbw","types":["cafe","food","point_of_interest","establishment"]},{"formatted_address":"2F, 358-111 Seogyo-dong, Mapo-gu, Seoul, South Korea","geometry":{"location":{"lat":37.553219,"lng":126.9223773},"viewport":{"northeast":{"lat":37.55456882989272,"lng":126.9237271298927},"southwest":{"lat":37.55186917010727,"lng":126.9210274701073}}},"icon":"https://maps.gstatic.com/mapfiles/place_api/icons/cafe-71.png","id":"335fd59d3f14e74046d789316f9f3d82f686db45","name":"Cats Living","opening_hours":{"open_now":true,"weekday_text":[]},"photos":[{"height":1836,"html_attributions":["<a href=\"https://maps.google.com/maps/contrib/106570047852557954986/photos\">이복규</a>"],"photo_reference":"CmRaAAAAQTqiLdqmVj_o39UflNfQRHlUb2giaGf2_ECyosnDnUgWPDjXijmy7lhXDTi_7EF-PrCS5vJBR3xYLCanG0MgbhSi_5ngF836nmrSeX7FkDV-osQyw-omsfKOz1nF4ppQEhCTEMakomAy7wo6tWsFfaoWGhTjc7DRHSKg5W1TwsaHXUfI7f7tPQ","width":3264}],"place_id":"ChIJu0HSt8SYfDURjNPj1sNq-Ac","rating":3.8,"reference":"CmRbAAAAfFq_p_0LITFgTlTSv5tw7q_d6Z7Qlo3RDzT8YPgjHb4tVCrOnciBa0Fokzs2Cy3k61STRkuz9JCJVEoNjZ9-5qUEBiGplRg_iEC3jDIDZBOxjA2X_KsTA1jGPJ2MaO1DEhCoBTFoKgkRQurzfKXi9jReGhQmD6DDQQhDvdQuwXpTuop0-UXBhA","types":["cafe","food","point_of_interest","establishment"]},{"formatted_address":"13-44 Changcheon-dong, Seodaemun-gu, Seoul, South Korea","geometry":{"location":{"lat":37.5574574,"lng":126.9383364},"viewport":{"northeast":{"lat":37.55880722989272,"lng":126.9396862298927},"southwest":{"lat":37.55610757010727,"lng":126.9369865701073}}},"icon":"https://maps.gstatic.com/mapfiles/place_api/icons/cafe-71.png","id":"d2c04d40096845af2f343274f930e3584e9fe9a1","name":"Drunken Cat Cafe","opening_hours":{"open_now":true,"weekday_text":[]},"place_id":"ChIJOfOtrpaYfDURSefrgEEj_u0","reference":"CmRbAAAAwiENNlnb_M0LHyARug8oeG5FBeAVakPG79XHIeF0XodESt1DHkQvrbjK2PiSYzlbMuz_x8IA-E5dKAFvQkLxC2vBt3g-Pxx4DWbQrVQMMUFrJi3OIDkLBhmAkT7AjnBNEhDW0w5N5J1aSCtTBT6Mwm1EGhRMZ5nPfgAV0oR_IyuFoROn1p57Cw","types":["cafe","food","point_of_interest","establishment"]},{"formatted_address":"28 Myeongdong 4-gil, Myeong-dong, Jung-gu, Seoul, South Korea","geometry":{"location":{"lat":37.562431,"lng":126.983742},"viewport":{"northeast":{"lat":37.56378082989272,"lng":126.9850918298927},"southwest":{"lat":37.56108117010728,"lng":126.9823921701073}}},"icon":"https://maps.gstatic.com/mapfiles/place_api/icons/cafe-71.png","id":"7c7baca897ed9a1c39079ff088d4673dfc6ae228","name":"Hello Kitty Cafe","opening_hours":{"open_now":true,"weekday_text":[]},"photos":[{"height":3144,"html_attributions":["<a href=\"https://maps.google.com/maps/contrib/114456075138998633237/photos\">pollito serrano</a>"],"photo_reference":"CmRaAAAAlMiqxVERxwcOGngbEeRQcArHbCIkDMiwiY3VqjzPgZHrY7pk06xF5OkD0zkLBNfxOjuDqHf7p20Ct_e8sIrfg4Z9Gb3crcdaeNN5vbHsDTUD1AkbpUGoXy5RrRZcKPCEEhDrmQSLpEkkd_PE9C7cadO8GhRcNiG5eu8O3JKNrfmdRR7nZDTaBQ","width":4192}],"place_id":"ChIJt9EXU_CifDURo2ToPKPa83o","rating":3.6,"reference":"CmRbAAAAdRW0T6eK_HmXvm0REXEjGFGJ0x26liv7WNkP-5c_ASa2_I6pgpzPiJbHvpQiNVJ0J0-Mm5Y6KJ7gbT_AiJ-vSMElFZP5ljZoR9Ym3HczC-Snkvst0gIUF_2W4JSs9almEhA9XW3aW6HSVNr6jqr2x6epGhTR844YDuZOVS0OKaCKfEXeqWLXlw","types":["cafe","food","point_of_interest","establishment"]},{"formatted_address":"221 Dosan-daero, Banghwa 1(il)-dong, Gangnam-gu, Seoul, South Korea","geometry":{"location":{"lat":37.5710967,"lng":126.8156065},"viewport":{"northeast":{"lat":37.57244652989272,"lng":126.8169563298927},"southwest":{"lat":37.56974687010728,"lng":126.8142566701073}}},"icon":"https://maps.gstatic.com/mapfiles/place_api/icons/cafe-71.png","id":"9961b044898119c90300669bffe1799eb8ae6081","name":"hello Kitty cafe","place_id":"ChIJVVVVFYWcfDURpyZ0w7p-bZc","reference":"CmRbAAAALUkkN29O1R0ucaOnnEgIMpoV6n6b5RKNClha-QaSjq_BAizWUcttMSbvcr0xL6YA-SdBVVnhDNw8PqotjsSwt2zL5IfD_SJjWLrImtG4J8vRP4FSQEZHKgHxwHsRb2VFEhAslUPFISBY4gVRqp9hnCTGGhTpMgxaI5F_HdZZsTbzAL3VPMHU8g","types":["cafe","food","point_of_interest","establishment"]},{"formatted_address":"358-2 Seogyo-dong, Mapo-gu, Seoul, South Korea","geometry":{"location":{"lat":37.5538178,"lng":126.92278},"viewport":{"northeast":{"lat":37.55516762989273,"lng":126.9241298298927},"southwest":{"lat":37.55246797010728,"lng":126.9214301701073}}},"icon":"https://maps.gstatic.com/mapfiles/place_api/icons/cafe-71.png","id":"3c9151681879e93206c115f3fd3ef83ef93aeb92","name":"Raccoon Cafe","opening_hours":{"open_now":true,"weekday_text":[]},"photos":[{"height":2610,"html_attributions":["<a href=\"https://maps.google.com/maps/contrib/105647979645754766100/photos\">Winter Au</a>"],"photo_reference":"CmRaAAAA51osdOzQeEnOJuh5bJUSgao2tVfB66Z1Ruuflaal9vi9az4ktJJF3vuwj3TQTMiKBKzR7UZfhVy65sJGDDseOXl9f7ITkSYw2DfUUr0nEHx7LbNO1kfNDxwmlHMJHSnfEhA5iTskesvasQS6j3AhEGuCGhSDhB1uh__tFQ7MtyuJLRpV32FYzw","width":4656}],"place_id":"ChIJJd_-CdCYfDURyL7JvS9t_CE","rating":3.3,"reference":"CmRbAAAAd96HRDo-AJYmGY97oz2Ccs-M7BbZ-pgpcrMCiLP99ck0d4T14SeAjxaEIr9bZKYy0gHBq1IX6BQrxoNZYSzZjK8bj-ww-pAk87F6PbxaRqlTCb-Oc59qhCH7NvCxVeS_EhBVxI1xxvufZWolzdb-gNywGhSMbHaJPHNfXkr5DXFMm1YVCVNiog","types":["cafe","food","point_of_interest","establishment"]},{"formatted_address":"3 층, 358-92 Seogyo-dong, Mapo-gu, Seoul, South Korea","geometry":{"location":{"lat":37.5526868,"lng":126.9231025},"viewport":{"northeast":{"lat":37.55403662989272,"lng":126.9244523298927},"southwest":{"lat":37.55133697010728,"lng":126.9217526701073}}},"icon":"https://maps.gstatic.com/mapfiles/place_api/icons/cafe-71.png","id":"1d5055fe66a27a33a3b53667a7ff74c9feda0233","name":"청춘고양이카페","opening_hours":{"open_now":true,"weekday_text":[]},"photos":[{"height":3464,"html_attributions":["<a href=\"https://maps.google.com/maps/contrib/104683254690177063801/photos\">emmy tay</a>"],"photo_reference":"CmRaAAAA0nwGHfQsYJZJxi_YBvAy6SoNRIEQ00y50s38TV_GEGUfhgMwNP8ajH2d6OgSYuoAmxEbwK1xWff7t7bg5MZkB40migIKjjwHLjM5BrIL6ZYu3YDSIVFD1iWeyfUNFOGzEhAekZUgxP0CEz7QGECS60T5GhSi2P8PRvhcSFoM5xLmO9Zjn0lSsQ","width":4618}],"place_id":"ChIJseyTwcSYfDUR8XYPHIyIIFw","rating":4.5,"reference":"CmRbAAAAoEpy_kREOJAzlsLQb9bi3r82bvyoo4guUjugJyqHxj5Kg8nKnUjTjzhShgijLyPQTHyc1MUvsFwBiJpKdmqSTW6L7FdKgb93swdRATRQL2UiWi2pGjBArqAerE9tmp7yEhDQ6SWlGm2qjPNwGqTViNF9GhQE4OoEk5RmK9Nqg2xu2QugRytb7w","types":["cafe","food","point_of_interest","establishment"]},{"formatted_address":"12-6 Wausan-ro 21-gil, Seogyo-dong, Mapo-gu, Seoul, South Korea","geometry":{"location":{"lat":37.5526868,"lng":126.9231025},"viewport":{"northeast":{"lat":37.55403662989272,"lng":126.9244523298927},"southwest":{"lat":37.55133697010728,"lng":126.9217526701073}}},"icon":"https://maps.gstatic.com/mapfiles/place_api/icons/cafe-71.png","id":"2de3b15774d6a8ad370d7fd906af83241049de8c","name":"Gio Cat","place_id":"ChIJseyTwcSYfDUROuizL26WtRw","rating":3,"reference":"CmRbAAAAZB1gb54b8H7MLN-frz_iWf2uoyT89nYItHBNafuxeK7j5zKvWDTOET1MESbV4pfxVYhizO7Wx0vdEr86dY8DnZ5CvfvRoWDqeefyPZjVu5CKefltKJCD_MWU5NLElvaQEhBK0C8a8PjDSaGFisqLNMlVGhTyWpanUeBDhhvyxwYdhQG1D6Ww3w","types":["cafe","food","point_of_interest","establishment"]},{"formatted_address":"Myeongdong 2(i)-ga, Jung-gu, Seoul, South Korea","geometry":{"location":{"lat":37.56218070000001,"lng":126.9840694},"viewport":{"northeast":{"lat":37.56353052989272,"lng":126.9854192298927},"southwest":{"lat":37.56083087010727,"lng":126.9827195701072}}},"icon":"https://maps.gstatic.com/mapfiles/place_api/icons/cafe-71.png","id":"edf977b406a13ea63c3769bd1d5b7566837074ee","name":"Lily Cat","opening_hours":{"open_now":true,"weekday_text":[]},"photos":[{"height":1536,"html_attributions":["<a href=\"https://maps.google.com/maps/contrib/111740609421031306862/photos\">Lily Cat</a>"],"photo_reference":"CmRaAAAAvS0TgSF6QvD4xAV-4O1H42ED5Icnn3h7YAfDTJ03qDfiprdjyIA38RbFf-59SpJap2kvE7vYsy3l-tbig6difsjXbPxcBRM8OIQRITflL3x5Dq7DWsZ-46QysG0yoj1cEhB7c3vLpfyls1ONGHEdEwpDGhRKQqvVfBba827BLmn0jXSMbZHtCQ","width":2048}],"place_id":"ChIJLbm3VvCifDURnhxftTKI5Os","rating":3.6,"reference":"CmRbAAAA2MMQkqtNyxOTQOOwAZaqzUuZTByUhgE3yj3H1BnkamxCH0Rve5FSv8TR0GNsvqKPRangZZ7LOTOGSDHDXKMA5kktzroXD9zkGCvXuWJhtFAMCAFxMZwkEM7y3Zy72dAsEhAWBjQT_Kmaz3feQvto8EVxGhQi30WmtmMJnx3EDmFqm6RBm63Fpg","types":["cafe","pet_store","store","food","point_of_interest","establishment"]},{"formatted_address":"21 Hongik-ro 6-gil, Seogyo-dong, Mapo-gu, Seoul, South Korea","geometry":{"location":{"lat":37.5554796,"lng":126.9229197},"viewport":{"northeast":{"lat":37.55682942989272,"lng":126.9242695298927},"southwest":{"lat":37.55412977010727,"lng":126.9215698701073}}},"icon":"https://maps.gstatic.com/mapfiles/place_api/icons/cafe-71.png","id":"539c56354a98f48868c4ba7d34a2da6a3029788b","name":"고양이다락방","opening_hours":{"open_now":true,"weekday_text":[]},"photos":[{"height":4032,"html_attributions":["<a href=\"https://maps.google.com/maps/contrib/111207189593140249630/photos\">pururun hanul</a>"],"photo_reference":"CmRaAAAAo5ZLAS8WZD-n66GAlJymiwfPcs3BeuTid21a-qHA6Cmq9kDwl39awVgLKEnPalkT66OFKDcEmhRAC7S1KnwcGoHXK7oOl46CsuO6XaDaaA-TZKZvY-H0L614iUelCUSfEhBD3jCsTJlQJTGYe63lXwAiGhS3gXvKPqNFV4MOp8WIvJ_ldWIk6w","width":1960}],"place_id":"ChIJGYbUOMOYfDUReT5eZpJZGqo","rating":4.3,"reference":"CmRbAAAAhIFLw2Gc2zm6JpZ_PKz80yp4xmr2j8tkmIXCtLMgW3eQcEHMPXBn_4OOcix4o2hrgWjZsN1WuPuK8UiaSYzWYBHCm5SQdRCVMzv5a2opHbgDX5m9Chr66UuxQLEbkdiaEhASx0XLLaoCoMJZ0ErET7asGhR0Yw2mBgkPJsrc9MSxFaYdHcqKow","types":["cafe","food","point_of_interest","establishment"]},{"formatted_address":"64 Yanghwa-ro, Seogyo-dong, Mapo-gu, Seoul, South Korea","geometry":{"location":{"lat":37.5503331,"lng":126.9157927},"viewport":{"northeast":{"lat":37.55168292989271,"lng":126.9171425298927},"southwest":{"lat":37.54898327010727,"lng":126.9144428701073}}},"icon":"https://maps.gstatic.com/mapfiles/place_api/icons/generic_business-71.png","id":"5742abd93dc35bf835e8cd0fba2c95495988f88d","name":"바우하우스 Bau house dog cafe","opening_hours":{"open_now":true,"weekday_text":[]},"photos":[{"height":3024,"html_attributions":["<a href=\"https://maps.google.com/maps/contrib/113643879688273045355/photos\">A Google User</a>"],"photo_reference":"CmRaAAAAcEMN6e0V2GSjjiwcmlWzoc-r3997RX5rQ_bZlng_pzVMcCuFTcJqWdDuP40OgsB5p9lrGIWdfCePVVERG63tk3Gs2kM6-uyHgmCvDOVKVU3dD2UFqRUsMmEHgy0RquX7EhC3ABISR4rv7m1oEdmF2pMCGhSDAtEk2uiLUaQRA0OhNrMk3sKsbg","width":4032}],"place_id":"ChIJ3b1jCtCYfDURh04NybaU-qk","rating":4.4,"reference":"CmRbAAAAqvSnrjpOmRzT-zopKRVur--yFYWO_YLInnO3JiXx99C5bIVnw7qdRNo9Jix9AjMin8N5qai1thc5HW1WGR1LFVaFn36hit7ypXsf77z_xLoETCxBbCX7edEGV0jxN8dlEhAZSpuYHDg9GBWSiJBhr274GhRMaasd38qUEoJPUw1v-NFPJDqxLg","types":["cafe","food","point_of_interest","establishment"]}],"status":"OK"}