{"html_attributions":[],"results":[{"formatted_address":"10111 82 Ave NW, Edmonton, AB T6E 1Z5, Canada","geometry":{"location":{"lat":53.517882,"lng":-113.491915},"viewport":{"northeast":{"lat":53.51929972989272,"lng":-113.4905658701073},"southwest":{"lat":53.51660007010727,"lng":-113.4932655298927}}},"icon":"https://maps.gstatic.com/mapfiles/place_api/icons/cafe-71.png","id":"6f1f2bf4078052f820b653310ad3b94949a1b302","name":"Cat Cafe on Whyte","opening_hours":{"open_now":false,"weekday_text":[]},"photos":[{"height":3024,"html_attributions":["<a href=\"https://maps.google.com/maps/contrib/101898123969195118901/photos\">A Google User</a>"],"photo_reference":"CmRaAAAAkdK8iMaa7CPEOrTKhazo2lrDaOJpuy1M8Qqq6OEGIW10Eyj5DnAp-D-aOmtC8I-mkf-MBah4eWsekNNeeRgOyPrYs-XYqZzsC4M3HDrp_WHyGVuZcE5WWDVPAHZRp1hLEhDPDpM51nNJ8nZ290lb-9EjGhR-dCNaht9oYfCAOdw2J84nNa9cVg","width":4032}],"place_id":"ChIJfYbFYw4ioFMRGls5u_HK-MY","rating":4.4,"reference":"CmRbAAAAN_trtNXSYyMc5T6naUM5M3YcAqtlfu0ooNFFlGMlKEjenMezhx4Y9Noj2puoRVWUcJDCB55DqLL_jccK5p6nUGAYv8SoN55-LAtsUyVfeY2oqrd_S4e5M8jvi7F1lnPeEhBNBIdMbVNP8LlOEqDlEykuGhROEDQUtK7EvmT2fPIF969fG5FFqA","types":["cafe","store","food","point_of_interest","establishment"]},{"formatted_address":"10588 109 St NW, Edmonton, AB T5H 3B2, Canada","geometry":{"location":{"lat":53.5496333,"lng":-113.5087799},"viewport":{"northeast":{"lat":53.55098202989272,"lng":-113.5073038701073},"southwest":{"lat":53.54828237010728,"lng":-113.5100035298927}}},"icon":"https://maps.gstatic.com/mapfiles/place_api/icons/cafe-71.png","id":"d303453f7c936966df63141a54652920ced9d0e3","name":"Paws The Cat Cafe","opening_hours":{"open_now":false,"weekday_text":[]},"photos":[{"height":3024,"html_attributions":["<a href=\"https://maps.google.com/maps/contrib/112677618077221924434/photos\">A Google User</a>"],"photo_reference":"CmRaAAAA-vTKLP4L-Ec6k40ptCN6zmL-AUvFjGvh9FzWU-5EAr4PZabD0O2DhW48_qDS8sk_9n-ZA-C49AlkUn-92GNCzss-06fh0ErzrbCex7TmMr0E6uSRrdcpk3NzF3qqleirEhBvtONYYIEYVaX1-yrBfFxFGhSkY0fV_m-ImqWc7ZSHLDopYJNdIg","width":4032}],"place_id":"ChIJpSydmUoioFMRLzaCeZ8OqYY","rating":4.8,"reference":"CmRbAAAA6vN0fIsjDpYjzMebAspQgIF76inY-XI15q_Kfr25fD5L33oXosA0WanV5iMJNPaDxcYWnhOMVtgsCvjJtNTF1szrpbKa0dV_ZFkygwpgeN-8hxExjMGebuQCz9uLBpGVEhCFJwEEZJGMLdTN2sRrEgZeGhTSfTIO0AGT8ChD7ueaN-Pe3zgoOw","types":["cafe","store","food","point_of_interest","establishment"]}],"status":"OK"}