{"html_attributions":[],"results":[{"formatted_address":"26 Clinton St, New York, NY 10002, USA","geometry":{"location":{"lat":40.7204578,"lng":-73.9841387},"viewport":{"northeast":{"lat":40.72183882989272,"lng":-73.98289267010728},"southwest":{"lat":40.71913917010728,"lng":-73.98559232989273}}},"icon":"https://maps.gstatic.com/mapfiles/place_api/icons/cafe-71.png","id":"d31d682c132d68df7bb1c2b6b02da61e6d26b736","name":"Koneko","opening_hours":{"open_now":false,"weekday_text":[]},"photos":[{"height":2988,"html_attributions":["<a href=\"https://maps.google.com/maps/contrib/106861128263907029681/photos\">Eric Azevedo</a>"],"photo_reference":"CmRaAAAAPChlxp8ScxUJfwWaYngo1G_2mx9_OJyTa7rr4WZKGEg4fNhyuOWFdh0cuOhM3BXFXi9nwx9mviTiF1QpTRRVigEIb7ubW9DKlyBd-8Nn5RWNZYM-zRfJ3dcHRVsF7OxrEhB5j1G39dNRbEqGjqTqnwi0GhSSiQCdfXEAT3xJZbbfzF-lZKVSiQ","width":5312}],"place_id":"ChIJRfY79IFZwokRSxU609-AfqA","rating":4.3,"reference":"CmRbAAAAajzPYlgjPuZ3D6jew3ytKMbRDdvpnUEHXTV7myW8Zwih_C-6-WrWx-Ek2HGXt7QsSvklQGV9OZPft3vCDzMPoXhgo5wsq1FCDLgIlQif3tLenjOCUd6rCQNnoMSwKhB4EhA7A1RGq8LYsESCeAMnqbMUGhSy70rDsCxPoRCBsH-WSBg3D8Z_iQ","types":["cafe","restaurant","food","point_of_interest","establishment"]},{"formatted_address":"149 Atlantic Ave, Brooklyn, NY 11201, USA","geometry":{"location":{"lat":40.6906652,"lng":-73.99509429999999},"viewport":{"northeast":{"lat":40.69191317989272,"lng":-73.99379377010726},"southwest":{"lat":40.68921352010728,"lng":-73.99649342989271}}},"icon":"https://maps.gstatic.com/mapfiles/place_api/icons/cafe-71.png","id":"612264bd05e60657bb307cd828ca21b0de46b65e","name":"The Brooklyn Cat Cafe","opening_hours":{"open_now":false,"weekday_text":[]},"photos":[{"height":3024,"html_attributions":["<a href=\"https://maps.google.com/maps/contrib/108430152067638177590/photos\">Janet Forte</a>"],"photo_reference":"CmRaAAAANumEcq7lgMHlGEmZ5mJkDBIVGquMngZTpTcjnsXNKo6-tCFz1iLA51c9dODjYHDUcQTccoSKsUQeAVXu2kIG7mTmwA0eT_5CgeqEUEKNguHI2f323AySeTlVNoyTXtllEhDO9TMeErFN1-vnlrOegICZGhSDVAeoMoDBcmhAx1cmT4l96mKPzg","width":4032}],"place_id":"ChIJAYsFhkVawokRw3cAQ-2bsqo","rating":4.4,"reference":"CmRbAAAAGTQqsQ-JYwRU41TXHaW8Ljbbx6V3MZV6WCn-TSvsG4DVzcuwamORUlImonL4OYfGTVsFFU8DJQLtPRWpufU-KJa9YBy5HRmFd8aIs9G8HitauVob5qmZPmWwL74fNR5_EhBEMQLH55EKSB2afQuptakkGhQ99_DF-L936Y9xi1659DEnPRT5WQ","types":["cafe","food","point_of_interest","establishment"]},{"formatted_address":"46 Hester St, New York, NY 10002, USA","geometry":{"location":{"lat":40.7155945,"lng":-73.9902819},"viewport":{"northeast":{"lat":40.71699927989273,"lng":-73.98890757010729},"southwest":{"lat":40.71429962010728,"lng":-73.99160722989272}}},"icon":"https://maps.gstatic.com/mapfiles/place_api/icons/cafe-71.png","id":"e504b7f4b8d597f1fe8c75288c7ad283a7f6bae8","name":"Meow Parlour","opening_hours":{"open_now":false,"weekday_text":[]},"photos":[{"height":3375,"html_attributions":["<a href=\"https://maps.google.com/maps/contrib/113194574337741622538/photos\">Meow Parlour</a>"],"photo_reference":"CmRaAAAAeA1HbI3m-t4WUIpsEY5yfnZUF3HXj9QCgeZge_G6udf4x3hcY2p_uvEEW7XoCFIdzE3wcB5dy4lw7q8iKXuWpn7yWvDG1spG-VeUGTT_K3f8qLeqtTw3UQ3YSTwj5W5-EhDtB1t5gQLK-qzAFEDKm5yrGhTNj46_LXEr_tML_ayRnt5A9cLOOg","width":5063}],"place_id":"ChIJdxwV6ilawokRjxYl79m1BzQ","rating":4.2,"reference":"CmRbAAAAy6G0a6dNVWKX7fKxuQ_ogdy3A8vJygw9WMkQs6CKMZpfXWcCt6ANJe7gY1LNhxOuQEJ9JHytgkXqwI6OSSIg8BmE0paSQcjR57Pu7p-BQQjY8xnYlajAsvYLmRweLcqaEhAZsS_07tmBWliGC4qzqt5pGhQ9WPdY8L6afZsPKRCuJRTrWPVQNw","types":["cafe","food","point_of_interest","establishment"]},{"formatted_address":"45 W Main St, Irvington, NY 10533, USA","geometry":{"location":{"lat":41.0396913,"lng":-73.8703218},"viewport":{"northeast":{"lat":41.04104112989273,"lng":-73.86897197010728},"southwest":{"lat":41.03834147010728,"lng":-73.87167162989273}}},"icon":"https://maps.gstatic.com/mapfiles/place_api/icons/cafe-71.png","id":"ff3e01c4b2c258b6bd7ceca76fa8e10ed57fa197","name":"Black Cat Cafe","opening_hours":{"open_now":false,"weekday_text":[]},"photos":[{"height":2988,"html_attributions":["<a href=\"https://maps.google.com/maps/contrib/118288027663414613549/photos\">Dave Elliott</a>"],"photo_reference":"CmRaAAAAjkBdoIFxUOqiMRwFA207YLtiFVuJCqneLsVh7_QMDW6SsseuxfmOSFxXy1CYf00EcqLu4x_Owmocln3k8mc-HVODEfEI0CpqfGgOz4aWDyhyqrt-gpA712N3dVj4VZW6EhCWtorrTcLsCaCeyuf2TnZ_GhTaGYueJrR7s0oHqQJz7-ozJnNN9g","width":3984}],"place_id":"ChIJLUPkHRTrwokR_qpsBhdGb34","price_level":1,"rating":4.2,"reference":"CmRbAAAAufbGM7tbrMCIAwijYJ5FJfPwa_ghRTeNRuuy127v4vB-JYKnJo9Mr4G5QbzC-iiY3hC90jwHkEWCY-rcVwtB_WMIkUJUQg2Bs4OIXjbIp3ZeQpBOnAXI_winOD3ivT6JEhBJmb0IxfLcuwoQunw2ZjlQGhT0FciSB6RowUwwsITd5w8vpvupKQ","types":["cafe","store","food","point_of_interest","establishment"]},{"formatted_address":"6669 Fresh Pond Rd, Queens, NY 11385, USA","geometry":{"location":{"lat":40.7068363,"lng":-73.89694779999999},"viewport":{"northeast":{"lat":40.70816572989272,"lng":-73.89566967010727},"southwest":{"lat":40.70546607010728,"lng":-73.89836932989272}}},"icon":"https://maps.gstatic.com/mapfiles/place_api/icons/cafe-71.png","id":"c97082e58272c1d0c0b9e8d98ec1d0795168ed94","name":"Cute Cat Cafe","opening_hours":{"open_now":false,"weekday_text":[]},"photos":[{"height":2976,"html_attributions":["<a href=\"https://maps.google.com/maps/contrib/107721639142406768068/photos\">Cute Cat Cafe</a>"],"photo_reference":"CmRaAAAAgMFSK7okjKmN7rHPRXMyfVFBc0qLu2gAj-ybBjVIFY-SkeJBxpT4-Rmyo4xdnv4abg9v95_7oWXYa49zMJs5AyJXi6xj-n-DsFXeqMjzByfCNoB3OXEIVZ6pgrxD27FHEhD0kmELYx1OpyB0rGP5CpsaGhRCw8pg9762TqHjBJvCxSbD43TIPQ","width":3968}],"place_id":"ChIJQ9OxvYNewokR5Q4Deyck9-g","rating":4.6,"reference":"CmRbAAAA-pxcPczLTV6hWYY3c4Wp7MVSAYbFMZJywl17RrQSxhPzAIm4bxGHekGlTXp5V1AsgIGwSlcWPANVPsJVVF7BzlKRxTOJDjf_O791LZew02PhefwOOOU-wfs0A_OdSAuREhA-HrSW9OhoxlbNkaWeREXsGhRwuSW8cigP-AruFbkgR6BnSLcrWA","types":["cafe","store","food","point_of_interest","establishment"]}],"status":"OK"}