{"html_attributions":[],"results":[{"formatted_address":"2713 W Girard Ave, Philadelphia, PA 19130, USA","geometry":{"location":{"lat":39.9744665,"lng":-75.1809008},"viewport":{"northeast":{"lat":39.97570897989272,"lng":-75.17957347010729},"southwest":{"lat":39.97300932010727,"lng":-75.18227312989274}}},"icon":"https://maps.gstatic.com/mapfiles/place_api/icons/generic_business-71.png","id":"f8c40e4c48e81ba809d8b78ae567a6e9a11b4901","name":"Le Cat Cafe","opening_hours":{"open_now":false,"weekday_text":[]},"photos":[{"height":1836,"html_attributions":["<a href=\"https://maps.google.com/maps/contrib/102108362459754699150/photos\">Jonny Perez</a>"],"photo_reference":"CmRaAAAA9amLLS6N1Xw4aSNbAfz6TuhwEfSWukkKTdHd4vp6lwRTYgBVSDIiiqVgq88D3GQqlkYE74DLrp_8BoFOVhFLVO15cjOVsSekPLf5smdKAOkfBz7MwWIF3cy7xjpAzup0EhAW8qgtEKy6VPhwemIV6Y48GhSfW86p3veQ836M3zmVcLw23H5_2g","width":3264}],"place_id":"ChIJb5NBArnHxokR0E0_8JV1ksA","rating":4.8,"reference":"CmRbAAAAHKQKzjA3kOYPMhlNOAmqLMAiPHWLHAVcuucBxmPN4el0-OQ2HGeor6yBTPu8EZWRFma1VcjEMsNTMnGOxqRMOl9jBEIzhZbg-Tdi_D4Pn2oMxurCJ1PPTqXsvA55h4RwEhD2xe5iD0D-g8jYrc5ADDyJGhTuK0kGfFGCrxC_u3nmFGMjByaadA","types":["cafe","store","food","point_of_interest","establishment"]},{"formatted_address":"759 S 4th St, Philadelphia, PA 19147, USA","geometry":{"location":{"lat":39.9386176,"lng":-75.14960959999999},"viewport":{"northeast":{"lat":39.93998097989272,"lng":-75.14837212010727},"southwest":{"lat":39.93728132010727,"lng":-75.15107177989272}}},"icon":"https://maps.gstatic.com/mapfiles/place_api/icons/cafe-71.png","id":"578f6b2991f80f2ab9dfbc6f3f6c03746152822b","name":"Kawaii Kitty Cafe","opening_hours":{"open_now":false,"weekday_text":[]},"photos":[{"height":3024,"html_attributions":["<a href=\"https://maps.google.com/maps/contrib/100604134676431623348/photos\">Kristin G</a>"],"photo_reference":"CmRaAAAAxsZ1j66KDdBwZr4MXhPT68IZ-eYsFUpisITI4PCJKj95p5oEcPvlyFOlpE_5hUsfAfgvIHLdu91Xe1n2HkJbkMvti7m2jDwD-xSm54O2oyuU0stP2kZF2xVTp4zZJxsIEhCBsEK5eYWWbK8131PnJ4M4GhTKjEOiNr91qXfgo-KMq0yrpKX40g","width":4032}],"place_id":"ChIJl7lYOJ_IxokRdSPvbrSoq9k","rating":4.6,"reference":"CmRbAAAAWDqR_YBn80cL2uzTSI_WBRHI9MfVP1ohzU7Auu-4OQIVmoKgQbBVLTu81-nkMk_mZV-4mwEn3WG0uETwj_znbzNo92ttVQUWjisVBPjWTkJYNa7AzesKARxqYXKRJQO2EhBg7F6G1GS1hqgmNYlAD8V0GhQERrLPa-zk8JUo9g_PNDlyftO_0Q","types":["cafe","store","food","point_of_interest","establishment"]}],"status":"OK"}