{"html_attributions":[],"results":[{"formatted_address":"Tabasco 337, Roma Nte., 06700 Ciudad de México, CDMX, Mexico","geometry":{"location":{"lat":19.4174757,"lng":-99.16819129999999},"viewport":{"northeast":{"lat":19.41878972989272,"lng":-99.16683327010728},"southwest":{"lat":19.41609007010728,"lng":-99.16953292989272}}},"icon":"https://maps.gstatic.com/mapfiles/place_api/icons/cafe-71.png","id":"a44d0f2573a5acda74fa098587d588cbc975b2a7","name":"Cat Café","opening_hours":{"open_now":false,"weekday_text":[]},"photos":[{"height":3366,"html_attributions":["<a href=\"https://maps.google.com/maps/contrib/101460833077899158627/photos\">Gabriel Vargas</a>"],"photo_reference":"CmRaAAAAC-KexCWf6j8Jp6cUyQZJdyBDT0xEiWPJvy8wopoQsaaebEofmZJoXBJm8EnP547_MqFNEmJUGeGaRqz_eFCph1h5gdjLCvivnG3XJc-h031iv6eYlHLwWHrt5Pw9yMslEhBeKxE7Xi4_zV0MlpKBUUXmGhTQ54WpjHQR72MehPmTqJj_ts7Rjg","width":5984}],"place_id":"ChIJj-NNm0f_0YUR6E1DUsWt62w","rating":4.5,"reference":"CmRbAAAAHM2hhJhpCeQM09n33ySljQzApv2MNtpl7KRcG61KCq-3mQjhFGOmNlIG3qs5vkFE_VluLjIRakYfprhjRDFuwwrbZg_pIqZWr0_19l-Ct9ieVz21n57yZTHiJfptXm4xEhCcIk-2D9bID5WeiMVwWOUdGhTN8HRFvpfUwJJrjrLaIL8NHOe7pQ","types":["cafe","food","point_of_interest","establishment"]},{"formatted_address":"Roma Sur, 06760 Mexico City, CDMX, Mexico","geometry":{"location":{"lat":19.4038418,"lng":-99.16291430000001},"viewport":{"northeast":{"lat":19.40519162989272,"lng":-99.16156447010728},"southwest":{"lat":19.40249197010727,"lng":-99.16426412989273}}},"icon":"https://maps.gstatic.com/mapfiles/place_api/icons/cafe-71.png","id":"e401d453cccacd64b25df9f4b5b04f1a7e4f40f9","name":"cat cafe","place_id":"ChIJ8Vn1FxT_0YURBbqlBZnkY0w","reference":"CmRbAAAANrFlTjw7HOhYshH5-q7F4d2CpX4BgjhgoK9JrKQzxYGvtVOc3om6zDMLN_oQ98E1zo-f6lrY0lHiUqILwnDB6tY-aaYkfnMLCZDU2IjOXcyfDAYjt0aL0BhGcPMkHfc8EhDPIvD-RhLQtJuOZUIB4cEdGhT9kC5wS6zJ5Vo6u_esHti7hX2hYQ","types":["cafe","food","point_of_interest","establishment"]},{"formatted_address":"Calle Pennsylvania 291, Cd. de los Deportes, 03710 Ciudad de México, CDMX, Mexico","geometry":{"location":{"lat":19.3848337,"lng":-99.17659479999999},"viewport":{"northeast":{"lat":19.38622447989273,"lng":-99.17512772010728},"southwest":{"lat":19.38352482010728,"lng":-99.17782737989272}}},"icon":"https://maps.gstatic.com/mapfiles/place_api/icons/cafe-71.png","id":"5f60fbdd97b0e8b784711f161467ab6bd7ef3a92","name":"Black Cat Cafe","opening_hours":{"open_now":false,"weekday_text":[]},"photos":[{"height":1536,"html_attributions":["<a href=\"https://maps.google.com/maps/contrib/106229652025276885200/photos\">Cafetería El Gato Negro .</a>"],"photo_reference":"CmRaAAAAO8gddekCq7mpYWs6HXeezDVY_xscBSZcj_69UzCum5-OCNB4jA7ZVOYBgr394x7Vnk1k5eZTNCv-X9rNWYF24wo20NRvRamznG6x_0aIasGc2OBuKz6okYG4IrcAvK1aEhAhybZpvDqsSQKiZ7Hu2BctGhQ6tgd9qrCSMZ13iX0EMgLQW6OuIg","width":2048}],"place_id":"ChIJYTUCznf_0YUR_vheVdBiIiI","rating":5,"reference":"CmRbAAAA-HvzK6ae8FNZtvdirICVnEr4bRnTCZugK0__u_MDbRGR7j0i3EhXUMB63qyywO9d6hUl-dfWOadbOgRP4M-bc3-SXOop4U9ybjequKxGPo-x21eoTUG81mlwHWgxtxZGEhDVpW-SQZGN_eEDM9CjOiF4GhQOXPYRy0h_ZZhqfAGAg2S4YOvHCA","types":["cafe","store","food","point_of_interest","establishment"]},{"formatted_address":"Av Observatorio 156, Miguel Hidalgo, 11860 Ciudad de México, CDMX, Mexico","geometry":{"location":{"lat":19.4036993,"lng":-99.1943932},"viewport":{"northeast":{"lat":19.40497022989272,"lng":-99.19303457010729},"southwest":{"lat":19.40227057010728,"lng":-99.19573422989274}}},"icon":"https://maps.gstatic.com/mapfiles/place_api/icons/cafe-71.png","id":"16632c115664afe7293db8bb4ce19f8bfe4a02f1","name":"Chubby Cat café","opening_hours":{"open_now":false,"weekday_text":[]},"photos":[{"height":1837,"html_attributions":["<a href=\"https://maps.google.com/maps/contrib/109043331122282481501/photos\">A Google User</a>"],"photo_reference":"CmRaAAAARdzlaGzCXuuwkH55E6tejQR7b37GuNP2XQpD7_kJeugUelvWjVXXRBdN9_eFRcPXRNUj1qTZNgdoKpeFhuulymf8cSNSjs6BuLDLlNj8lpwGrVTvtmfRTMOqkX5MMV2kEhCu5nEb3r7AwLf5mUImawjcGhRdYab-ee_v0LkohFek3RXT9ZCojA","width":3264}],"place_id":"ChIJLyEhit4B0oURt7jBPEitRkw","rating":4.5,"reference":"CmRbAAAAyMsJzNlFVt1-mSlzOfdL3entLBNaPSeLQM9oHtaT9tLaArTT--vPvdaUVucuMxwqUq4LTqHeQkCjoKuC7GmD0zzq0VUoGMYzq-YmUi-aXweQfQLIaCHbHRng57bzCTBGEhDhzaXQKbRBphm9A3-eZXWHGhTj4iMCJXy5l-pV2r9GAMfT572NAQ","types":["cafe","food","point_of_interest","establishment"]},{"formatted_address":"Baja California 266, Hipódromo, 06100 Ciudad de México, CDMX, Mexico","geometry":{"location":{"lat":19.4057387,"lng":-99.17045569999999},"viewport":{"northeast":{"lat":19.40714827989272,"lng":-99.16910782010729},"southwest":{"lat":19.40444862010728,"lng":-99.17180747989272}}},"icon":"https://maps.gstatic.com/mapfiles/place_api/icons/cafe-71.png","id":"254974410482defa216a54f5b8daff4c8f5257c3","name":"Catfecito","opening_hours":{"open_now":false,"weekday_text":[]},"photos":[{"height":2340,"html_attributions":["<a href=\"https://maps.google.com/maps/contrib/106845117436479857760/photos\">Roberto R</a>"],"photo_reference":"CmRaAAAADsIBfq-wPoWEOmlmdOpbVyKD8eZl_AIM5VXe6gLTBv7M-X326WVuMjvH9GgZQtMZaIbCH8erfplCKfgpm00r7OAaHfirtDVmyf0kFRZxqr1qXXq92aLUacee8rsSmhqlEhA8Q2sgdfmYOsN7Vt5jFymJGhSayeuO9L0K_0khi15lPCchGie4Rg","width":4160}],"place_id":"ChIJAbwb-Gr_0YURK1H6BIQIMCc","rating":4.6,"reference":"CmRbAAAARLhIIsRD6hjsDByr0DAU04EMktN1eGlLvv2rj7SWbLGxdhugTDReQiWK_kzlG8cZiCRB2p-N1siRn3StrakXtsKDvpy66jayeFYdu9o4u-heHuCKhdFjJtmQs6qsFPGUEhDvIJTewjVbwF9Eq2TPe5LTGhSxCcf0ZgvMm23SP-m72g3lC5U4cg","types":["cafe","store","food","point_of_interest","establishment"]}],"status":"OK"}