{"html_attributions":[],"results":[{"formatted_address":"106, Taiwan, Taipei City, Da’an District, 泰順街2巷42號","geometry":{"location":{"lat":25.025603,"lng":121.529569},"viewport":{"northeast":{"lat":25.02698512989272,"lng":121.5309137798927},"southwest":{"lat":25.02428547010728,"lng":121.5282141201073}}},"icon":"https://maps.gstatic.com/mapfiles/place_api/icons/cafe-71.png","id":"0fdd9082dd54ddd510f7222b0d647c2ef8737f6b","name":"Minimal Cafe","opening_hours":{"open_now":true,"weekday_text":[]},"photos":[{"height":2342,"html_attributions":["<a href=\"https://maps.google.com/maps/contrib/112182830313773860519/photos\">mandy ma</a>"],"photo_reference":"CmRaAAAAl9N1zPfvkY8aZgmlbwuTQhg_ksL1nlIv357pUScR6iMrDiWksZnDj39rbxvEFaFRQFOy7ig_RZfbPp1iTc54nAwkyUJ3Eqkum6w2RohexiwxE3vAq5PATAbJX6TQ_6GeEhAY93GL66RYVpCgWH6uKfZrGhTln5ylTBk3eFFlEm1YGb2FhQZURA","width":3122}],"place_id":"ChIJT7RMuYWpQjQReKLqtP2lOuw","rating":4.2,"reference":"CmRbAAAAY81KAQ4y1rq5ZyfI7hAFfMSUizJSUmmVHXno5lCSzpBHo3BY-0HAfDNzi2dtTF2NSvvavG2Q2YeED6ucBbQpP5A4urNm2DhVG9abBb577NkBu_IoWtIAakAKCkKBjU9REhAfDZSjTq8vIJH9d2VvJMntGhQgyH4kn4FhaFAqX-4wrV_XZH7UuQ","types":["cafe","food","point_of_interest","establishment"]},{"formatted_address":"103, Taiwan, Taipei City, Datong District, 赤峰街71巷4號","geometry":{"location":{"lat":25.0565802,"lng":121.5198612},"viewport":{"northeast":{"lat":25.05795207989273,"lng":121.5212120298927},"southwest":{"lat":25.05525242010728,"lng":121.5185123701073}}},"icon":"https://maps.gstatic.com/mapfiles/place_api/icons/cafe-71.png","id":"36e268d5a37fc672359347350454a456dc1b2ea1","name":"找 貓咪 Found Cat ️ cafe &bar","opening_hours":{"open_now":true,"weekday_text":[]},"photos":[{"height":2904,"html_attributions":["<a href=\"https://maps.google.com/maps/contrib/110493695860935791897/photos\">徐煥文</a>"],"photo_reference":"CmRaAAAA0keGobzosSltFhDCwiHA_l4RRkiflLcNSKijUo8OrwxsNev4hVj1rOIlmGC3L-wpmKN2w0OHKLXSYDXEy5ba4iPI_QORIE4_EUysWlTWBGebl75rXF5rR-JmNrcJGuuOEhCovqXxBMmMFeEJ9p-OMAkOGhRakpbDMfETl50s6ciGXKhmVARZPQ","width":4352}],"place_id":"ChIJ4Rx_IGqpQjQRXEGYa2i44m0","rating":3.7,"reference":"CmRbAAAAOt9jYBY5ptFA67jlFzqWiJ-41XPn51HcqYqOBTGedDGE778aNnbvHv_vvrpKhdg6o4G8XXYcI7jSZFhl3Z8JsXF3ojtiLCmLlOWBLRfTYJ1S_NqKYOO_unhf7FvqbnZTEhAQpXR_mTeLmtO2vVrcr06BGhTsgtIZkwWatdjv1fAm8harUqMmbA","types":["cafe","food","point_of_interest","establishment"]},{"formatted_address":"237, Taiwan, New Taipei City, Sanxia District, 大觀路117號","geometry":{"location":{"lat":24.9455728,"lng":121.37451},"viewport":{"northeast":{"lat":24.94692882989272,"lng":121.3758714798927},"southwest":{"lat":24.94422917010727,"lng":121.3731718201072}}},"icon":"https://maps.gstatic.com/mapfiles/place_api/icons/cafe-71.png","id":"41224782af98ea0464c10f133fdee65e2ce376a5","name":"微笑的貓咖啡館Smiling Cat Cafe","opening_hours":{"open_now":true,"weekday_text":[]},"photos":[{"height":3024,"html_attributions":["<a href=\"https://maps.google.com/maps/contrib/101247700376724341292/photos\">葉穗</a>"],"photo_reference":"CmRaAAAAbDAKxCJdoBpAIKpiq8-kqIBu9fsvfHgvgd7jCanDV-9ZCPrWXHAY-2XTOBos2W4wVv6GhTKv9raJajQ1Ana0nTrgJY3UlS0VeAHX2UqTtfxkYIOdKcrC59jHo8hSWloOEhChJu0fzh7uvPt7XSzCp3rLGhQc9THjwnF7nopbYrqgjfQoudqCKA","width":4032}],"place_id":"ChIJc00tuwscaDQRE16l2l0bCgs","rating":4.1,"reference":"CmRbAAAAZ1he1SlEAiMGrCVhlWUsQHVo9Qs-C-xFmNHFTaIGnQ9NemqFipgenv1QeGDbC6auVGgeiuLHovKshIfx1ySPDT14y-pZvJyX24ipjm1BFYGX4tQQX5ti29y9dkxMb6ZsEhAUUFM7xJfrYcS5_5WP8tUTGhRMISHPBz0jblxHXvMU1kq2ZIhepw","types":["cafe","food","point_of_interest","establishment"]},{"formatted_address":"103, Taiwan, Taipei City, Datong District, 長安西路64號","geometry":{"location":{"lat":25.0501829,"lng":121.5196979},"viewport":{"northeast":{"lat":25.05158067989272,"lng":121.5210616298927},"southwest":{"lat":25.04888102010728,"lng":121.5183619701073}}},"icon":"https://maps.gstatic.com/mapfiles/place_api/icons/cafe-71.png","id":"37c91ce813a0ff36c0a97261ce288afc2b6a7560","name":"Mask Cats","opening_hours":{"open_now":true,"weekday_text":[]},"photos":[{"height":2268,"html_attributions":["<a href=\"https://maps.google.com/maps/contrib/109933336512821790018/photos\">Grace Chen</a>"],"photo_reference":"CmRaAAAAo5a7JSA59JC-GJjRJ8S4j_bofAAyMZ4dKH3PrV3Uf0pSt1OynBw8DkfoZztelP9z1NJ_iLKiw-lZd2HpOxr6wyw_Lnn-OTMm4UHDqP3LF5fEufXKNwzeRUxgkG5OcxZQEhBrY2umBqC1F_0H4L8lBcuCGhQA3IPdaI7kMjUlUmU3HB8HhUgIDQ","width":4032}],"place_id":"ChIJrxnYKmypQjQRTUyr-Z4K_YY","rating":4.2,"reference":"CmRbAAAA4vcBomo-l1f7xgyA_RICr8fTEad65hcsxyIJ1J2r0D_jcjbD-S86Iho5tlH6NCjNPmTUlZpffUym72WZHYNFCvHIuFJO9eyyT0znHMat4mfONebWaJX-Z33uIS2gkhvnEhB46mDJZ3tbesmQG2BfWtfjGhQpQdK4pI7o2YWa4Bq_8RKlM12zfA","types":["cafe","store","food","point_of_interest","establishment"]},{"formatted_address":"111, Taiwan, Taipei City, Shilin District, 福華路129號","geometry":{"location":{"lat":25.1023949,"lng":121.522245},"viewport":{"northeast":{"lat":25.10375352989272,"lng":121.5236582798927},"southwest":{"lat":25.10105387010728,"lng":121.5209586201073}}},"icon":"https://maps.gstatic.com/mapfiles/place_api/icons/cafe-71.png","id":"7b101b88773185eaf9f3666955b5d3068e030200","name":"Kitten Coffee Garden","opening_hours":{"open_now":true,"weekday_text":[]},"photos":[{"height":576,"html_attributions":["<a href=\"https://maps.google.com/maps/contrib/110160479115831574128/photos\">小貓花園咖啡</a>"],"photo_reference":"CmRaAAAAPqNsODI3m2aSY7nKuL3WvXDoTKxdqm_dmKzrntap80kH3R3z2qRuy_Ozc1opleqUiVczfapJYgm3k4Kr3bZe74TGrphnqxFnOiYnyWZ1ghAuDP3ME8T4tCMx1PrpLv_XEhCYkCt0PoyQvHHuE4RL6V9NGhS5wcnC6XoqvcGhpZ4s-Cez9Xt7yA","width":769}],"place_id":"ChIJ2eTwVpauQjQRa_Hgky-FXE0","rating":4.1,"reference":"CmRbAAAAdEQ3emDVO_gUUDU6il2SK7S--dOxWc9uWBuvyDYjFKWpUUjyIP-tOlbyYfYFbuUqVq3RRYXC-JRniKMvffBDh3P-yjRSo6sx8Fb9bxmg8U35S5k3MkmDWcqpTu3EFPhCEhCTGiqxmTlv2CfKztJ4oKKPGhTyuXYbLMiDhTxVOpxbn5Zbi4qpzQ","types":["cafe","store","food","point_of_interest","establishment"]},{"formatted_address":"111, Taiwan, Taipei City, Shilin District, 德行西路93巷2弄13號","geometry":{"location":{"lat":25.105053,"lng":121.521632},"viewport":{"northeast":{"lat":25.10636252989272,"lng":121.5230101798927},"southwest":{"lat":25.10366287010728,"lng":121.5203105201073}}},"icon":"https://maps.gstatic.com/mapfiles/place_api/icons/restaurant-71.png","id":"86dd0cfbd2c789f66eb0944633b6e456a4c26cd5","name":"Genki Cat Coffee","opening_hours":{"open_now":true,"weekday_text":[]},"photos":[{"height":2448,"html_attributions":["<a href=\"https://maps.google.com/maps/contrib/116628098241119920075/photos\">Wes Lee</a>"],"photo_reference":"CmRaAAAAdsH6bNtxIFvOAR4vD0skjkeYNgf6hpyPubVxGmWl6jv8Fo7JDnvDKXDZfCz83ym1dUR2YV4x2lGQnXoi0Y3LMcFcV1ZaKvxdFZ4m_vGzGXbOUsGLITmbD_Sm1rSlMqIMEhCLwt4j_40_WAIsbaT_8NEGGhTkW0IY6y-Q1cKqzxIFAW5djkdStw","width":3264}],"place_id":"ChIJ92x22JauQjQRYTXUpAtbIzU","rating":4.3,"reference":"CmRbAAAArghxT4It4GFCH0GZjCbKnalNmUGvwcjRRcvWJebM5LDAgW3tYfuHqB6Xu_RGMCSDHuC-url1mZreqSXS405uqZajze63e_hE87kkXjr-snNXYTY6Tox48OQnpSPN_VvKEhB8heTO7Fr1ayj46kMVMHAuGhSCuS6j8puL1j6hGp2p2qxaJQUbaw","types":["restaurant","cafe","food","point_of_interest","establishment"]},{"formatted_address":"106, Taiwan, Taipei City, Da’an District, 復興南路二段332號","geometry":{"location":{"lat":25.0229327,"lng":121.5431656},"viewport":{"northeast":{"lat":25.02428062989272,"lng":121.5445963798928},"southwest":{"lat":25.02158097010728,"lng":121.5418967201073}}},"icon":"https://maps.gstatic.com/mapfiles/place_api/icons/cafe-71.png","id":"1385186ed4527ed256f703cbb8aa548d322dae47","name":"The Lightened","opening_hours":{"open_now":true,"weekday_text":[]},"photos":[{"height":3021,"html_attributions":["<a href=\"https://maps.google.com/maps/contrib/111849101428310319773/photos\">Olivier Hsieh</a>"],"photo_reference":"CmRaAAAAOsMMOe6Em_kiPzcDsUz6HqVbUlvzn_qrMBUyGQGXM69zMay8_yxGDSNfNXO5hc59nmyLEmTktjpMH6DyHpMldgrt7UWY64Jc4W3PaqMpQdNPwwFaEweWOHlPMqWbXrcqEhCDym1mcyjLh6XYMqaRjTqnGhQo1gYYkKEE5gfJmcMoAXH5ZRMUWQ","width":4032}],"place_id":"ChIJK2DfN4mpQjQRr3OJ_8Jg-QE","rating":4.5,"reference":"CmRbAAAAXLKrjQFlcpIw8tbIBxk0-SGADxeRQRIoYJQqhub4RlaxGxVaYbg8Obdkaegi9I_pvxRKB4-X5DBxpH8wCIaI8g-uM4hUCOmoSEUAJafN-97dRW8MsWn0sW3_ySNV0KMWEhCwbdvl57BGn0RirBhtJNnZGhRELFxp1hBqeqBWXmrxLJF81efJig","types":["cafe","food","point_of_interest","establishment"]},{"formatted_address":"106, Taiwan, Taipei City, Da’an District, 光復南路290巷58號","geometry":{"location":{"lat":25.0394352,"lng":121.5555299},"viewport":{"northeast":{"lat":25.04074482989272,"lng":121.5568785798927},"southwest":{"lat":25.03804517010728,"lng":121.5541789201073}}},"icon":"https://maps.gstatic.com/mapfiles/place_api/icons/cafe-71.png","id":"c47fca4cb012659a738812b63e15668d93c5cafd","name":"Toast Chat","opening_hours":{"open_now":true,"weekday_text":[]},"photos":[{"height":2988,"html_attributions":["<a href=\"https://maps.google.com/maps/contrib/114118602641582529989/photos\">林凱西</a>"],"photo_reference":"CmRaAAAAWV45OmZttMn8HhwTYl6CUTZAI742muPo6O0AYAWdbgL4NJZ94mEstJk7zU1f3ZmHT59QfFzfsRXQJghHJTYBOv1ksrkVCYmEKi-LDSPDdScxhZbEr9FupRar_fXBxny1EhBccC_GKDJn1hXdLOwXk4axGhSnXrqw6pqNxp0XBXH8lB2VExuQsA","width":5312}],"place_id":"ChIJASafGMarQjQRtDMLDBSxPL4","rating":4.1,"reference":"CmRbAAAA8xYewTNgyIS5byyXbK7s_wooT5mWqr69ia3m12j5aXC4lLTdvCTt9TTpF53uB6gtOdJIsuSglP67QLkvKq9-TlF9rldF60FLqNsFI-FWZt-WGC0BRPnkx9kyNl0sM5EiEhB7tPXXahHNzeHtD3oY8M_WGhTdPXOK3j_DGkXJCkzXFQ1St7kO4Q","types":["cafe","restaurant","food","point_of_interest","establishment"]},{"formatted_address":"106, Taiwan, Taipei City, Da’an District, 永康街41巷26號","geometry":{"location":{"lat":25.030422,"lng":121.530585},"viewport":{"northeast":{"lat":25.03179742989272,"lng":121.5319253298927},"southwest":{"lat":25.02909777010727,"lng":121.5292256701073}}},"icon":"https://maps.gstatic.com/mapfiles/place_api/icons/cafe-71.png","id":"74c81c994b6d91526f74a2149121a01f37748964","name":"YABOO Cafe","opening_hours":{"open_now":true,"weekday_text":[]},"photos":[{"height":2268,"html_attributions":["<a href=\"https://maps.google.com/maps/contrib/114772099672713335377/photos\">Ethan Clansky</a>"],"photo_reference":"CmRaAAAAbOw-BMwc_OlYhU09Ua3PJEQj9t3P5QkWxnLpoSuuJ1ltMg8J5TtSmVDibugANrAtVSZUomnJCl1tO9jSUG1Sm5sq_vfbVIMnSlNSSC_0-Jaj65KI0tYOHwzj6jhD89eJEhDpkr_uHDcBw0RRQvWFvRnPGhRAV9JmkxKoXvKg4_5v5ZVNDJdXjg","width":4032}],"place_id":"ChIJn2U13YOpQjQRPHbNYIzlhvs","rating":4.4,"reference":"CmRbAAAAnRBEJC0O1IgRsZ6Sa8xH6Tjwlub-pbW0YASWWukIA-i62uGXtpyLgXhGZ4fw_6t1fy8QHEIiTSnCVl2EdzWfeiPmoN8paVdkaAMfy1t4UOVAH4F8m540xlNUWE_qsh_uEhDGlU3ppv4xFfAFIgX0UXQEGhTagKRYumrh6EH7_EfxdEMGxO_J4A","types":["cafe","food","point_of_interest","establishment"]},{"formatted_address":"106, Taiwan, Taipei City, Da’an District, 潮州街154號","geometry":{"location":{"lat":25.0284028,"lng":121.5289454},"viewport":{"northeast":{"lat":25.02977502989272,"lng":121.5302995798928},"southwest":{"lat":25.02707537010728,"lng":121.5275999201073}}},"icon":"https://maps.gstatic.com/mapfiles/place_api/icons/cafe-71.png","id":"71ee0863f539ee461a1a3cfc69484fa5641ae1d0","name":"CAT.jpg cafe","opening_hours":{"open_now":true,"weekday_text":[]},"photos":[{"height":3456,"html_attributions":["<a href=\"https://maps.google.com/maps/contrib/103160394039192387091/photos\">SingHung Kang</a>"],"photo_reference":"CmRaAAAAqvJuOrBkIreykoU_G7AuymMc0ABhpAC7jEqftPJakheBesNOJBvLL-y56w-5-DsdjZSRwnZR62vgAsRsqEZe8aMl02an-VgJgjD7v-5wOV-oRXVFdMp1I4oMCMW3haCZEhDZvIBPDhSIzmzcxjdFj9QkGhQXXcow1YiGft0ysCNgymfUt7eFAw","width":4608}],"place_id":"ChIJWS67y4WpQjQRdR12Los_F8o","rating":4.4,"reference":"CmRbAAAAGxQEaXBPxsOS9zblNP75yKlBm6p-wlR7IF20sfx0mt7YnDQNQ6vXFpKB4v4l2U_uEMzi0HdG9z_rsK5gl2zFV6Paqc9uCL8knbwNSM1a5F37BRP6lEU6WPEINfqpRPcYEhBTAKgQniapcEq0wgFlo6kkGhTOk-uYf--CDMqRU_cdzsEIC7t-bA","types":["cafe","food","point_of_interest","establishment"]},{"formatted_address":"104, Taiwan, 台北市中山區華陰街24巷3弄7號","geometry":{"location":{"lat":25.0486332,"lng":121.5200662},"viewport":{"northeast":{"lat":25.04998302989272,"lng":121.5214160298928},"southwest":{"lat":25.04728337010727,"lng":121.5187163701073}}},"icon":"https://maps.gstatic.com/mapfiles/place_api/icons/cafe-71.png","id":"712abd6b4a14c0df2a639fc890209ac4daa8d3e9","name":"浪浪別哭","opening_hours":{"open_now":true,"weekday_text":[]},"photos":[{"height":1280,"html_attributions":["<a href=\"https://maps.google.com/maps/contrib/108226374862540688002/photos\">浪浪別哭</a>"],"photo_reference":"CmRaAAAAQmU1VXiJl6oLX1PQ2t2ZKWP5kIGV7TVov57xV6PPPWKTCtxjsGaafqgAM0ZAEQbqSGcYvmCQOlvzWobXoj_5P3WXJ-mhbinX2AQbt0gmhQQ_D4VAB9aaIexEVr9aA1fVEhD-zlEyJ8ilIVDejlskLYwgGhRKSBKhPVFCKaLHvK8SzKwz2EKGQw","width":853}],"place_id":"ChIJYwcCC26pQjQRa1_jn0XhBi0","rating":4.4,"reference":"CmRbAAAA0Ti2BsEZVNomeuquLnPhC18xFAWxGyoBm8CNIcG_hdQ1iLia8tn-PO4oiEtdY3p8uWVhbztJjiz1jvKyOYPdjfqf7AwK1Q9N0u_PVjaCvZdCn00fTN-YRjnIjTfxPTeaEhB1WJrZBSAVJGhagbgbFzIzGhRBpdi3u0D9FtNh71fNkYcHIefglA","types":["cafe","food","point_of_interest","establishment"]},{"formatted_address":"No. 42號, Lane 2, Taishun Street, Da’an District, Taipei City, Taiwan 106","geometry":{"location":{"lat":25.059496,"lng":121.530828},"viewport":{"northeast":{"lat":25.06084582989272,"lng":121.5321778298927},"southwest":{"lat":25.05814617010727,"lng":121.5294781701073}}},"icon":"https://maps.gstatic.com/mapfiles/place_api/icons/cafe-71.png","id":"b594823278f59e6c67f96c7bf3c180473e4e5416","name":"極簡咖啡","opening_hours":{"open_now":true,"weekday_text":[]},"place_id":"ChIJn-eZGFypQjQRqOQzguxYJfo","reference":"CmRbAAAAS4XZOb_Xin1nH_yAgB-sHmDjmE7IjVBMYhu-wQOoez3gtpYd1zoGauDqpL7uecMjrsexsCJ5bCQG89viYdWdIuJ8IhNytxU3j-JvIibwT0hVRM5VDJiPaak1LAUdziNHEhC5RcBvdygnbkGgVylKalEzGhRL6yJ1jvDuNwshnNxW6j-s89v0bg","types":["cafe","food","point_of_interest","establishment"]},{"formatted_address":"104, Taiwan, Taipei City, Zhongshan District, 伊通街33號","geometry":{"location":{"lat":25.0504815,"lng":121.5352799},"viewport":{"northeast":{"lat":25.05182732989272,"lng":121.5365160798927},"southwest":{"lat":25.04912767010727,"lng":121.5338164201073}}},"icon":"https://maps.gstatic.com/mapfiles/place_api/icons/cafe-71.png","id":"6b3260697daeedf08f7289c2100fa941cb64970c","name":"Fika Fika Cafe","opening_hours":{"open_now":true,"weekday_text":[]},"photos":[{"height":3024,"html_attributions":["<a href=\"https://maps.google.com/maps/contrib/116207483885566490755/photos\">Benjamin Ko</a>"],"photo_reference":"CmRaAAAAWyCEMecNZlUm7ykPflw2HneiFpNxr6Ct7uMKAePLs15DHtpSb0CqsvTrKcwdEFUivdXaTdrI_FymsG-yDOPPP5m3J1wNeEyDVVC37EYEWa_LgnaMKeiLWwzeh2EkMU8qEhBHHcIouof8RAGhmxIUHJsZGhSbIAoJ0znzImwTEckGcA-nQNqiNQ","width":4032}],"place_id":"ChIJEfselmGpQjQR7yaK-dqDBJ4","rating":4.3,"reference":"CmRbAAAATAcs5PFgR1VI3_czxJ1hlYg705Np-kPkcEtuHnfAcE2bZqRlCMXfYlPtwuTETZkTRTZ6go-B-n67vSvI5vr1WAP4PdZWXFDj_8BdXEfJlftRN9aoZBLGavt2iainSeaJEhAj8_HROMu-v1f2GTkPnQhiGhQPP78Rad9iW--OBNuYdD-EMafJqQ","types":["cafe","food","point_of_interest","establishment"]},{"formatted_address":"111, Taiwan, Taipei City, Shilin District, 中山北路七段175號一樓","geometry":{"location":{"lat":25.12454,"lng":121.532388},"viewport":{"northeast":{"lat":25.12588982989272,"lng":121.5337378298927},"southwest":{"lat":25.12319017010728,"lng":121.5310381701073}}},"icon":"https://maps.gstatic.com/mapfiles/place_api/icons/cafe-71.png","id":"78004c806b84a5435fd8a8c18b49807f98cee55a","name":"ZABU","opening_hours":{"open_now":true,"weekday_text":[]},"photos":[{"height":720,"html_attributions":["<a href=\"https://maps.google.com/maps/contrib/113552781617518919600/photos\">Ruby Hung</a>"],"photo_reference":"CmRaAAAA-WEtgSOPF3yt-wcU-497JtLAAkAYzSbtAEJM9VWw4lQ7nAzGP5Jbtdfz67UAny3QBlc6Lf7arn987LsIIsrCvIoWjTVNMZleEhfWXN4c0kFn5OFwPedagxwIj2Ovh8jIEhBDXK-lSYyS1gEvWueAz9KpGhRwD-6FVZXyhz6c5PZ7QAgzZ6GQ3w","width":960}],"place_id":"ChIJ37suSXmuQjQRwOL0nGA5aGE","rating":4.3,"reference":"CmRbAAAALUmIJ5yXDPBjvoqTxAK7HymkKqgLMCfNK8ic35xeYf3yHxmJXNmCtcHoFegYfjusnQ__NwFCpTXAzFLVewBkp9G7R7IHn8H-7KaXUOk7xehzW-bPwUy8OwwQ-8PddN97EhCOTcTS0ZAuVMbITevfhZrsGhR1QFLG-a9qvdVGDuJBcoOKqELs2g","types":["cafe","food","point_of_interest","establishment"]},{"formatted_address":"252, Taiwan, New Taipei City, Sanzhi District, 後厝里北勢子12-1號","geometry":{"location":{"lat":25.255245,"lng":121.474603},"viewport":{"northeast":{"lat":25.25659482989272,"lng":121.4759528298927},"southwest":{"lat":25.25389517010728,"lng":121.4732531701072}}},"icon":"https://maps.gstatic.com/mapfiles/place_api/icons/cafe-71.png","id":"0e4a18ff27d00f2bd31c5e7adcfee4afcd05f659","name":"OIA Oia Art Cafe","opening_hours":{"open_now":true,"weekday_text":[]},"photos":[{"height":3017,"html_attributions":["<a href=\"https://maps.google.com/maps/contrib/101087559010699246311/photos\">OIA伊亞藝術咖啡館</a>"],"photo_reference":"CmRaAAAAP07NJtg3U4bwus-omLcY4PDk8e0vapaW0kxfWcdvv4jxgfOBwopyaAzw9C3ZLkcifzfiLUUPKclNxYf7EuTcrL2k6wfz2LLrJtZTB_B6FuVA1GBGNrsSRvKspYyANCfcEhDY1YsNc_vPw9h_dV4wD5HmGhTKw35briB1qbcXZ5wGC50nu3elVw","width":4632}],"place_id":"ChIJX6ajaumwQjQRZCrojsbfT1g","rating":3.4,"reference":"CmRbAAAAiUqk1C3Tf8grveigEcFf1WKUKbDD9jpBHP-uAUmCA3lATpKXgMYfBqcfo08lRiUxU-Ejh6R1iU3ws1pyho4y3_v67n8HsVPbfgePrjBuGCPYSmYKw-ncPreH-jLUD-yGEhCAKnKJDa-kkVzEmhmSFkReGhQp_M2nDPYvfKx3ET6vp_og7jZw8w","types":["cafe","store","food","point_of_interest","establishment"]},{"formatted_address":"100, Taiwan, Taipei City, Zhongzheng District, 羅斯福路四段138號2樓 樓梯路口在拼圖店旁136巷走進來，左手邊看到臭豆腐店旁就有樓梯可上","geometry":{"location":{"lat":25.012801,"lng":121.535841},"viewport":{"northeast":{"lat":25.01415082989272,"lng":121.5371908298927},"southwest":{"lat":25.01145117010728,"lng":121.5344911701073}}},"icon":"https://maps.gstatic.com/mapfiles/place_api/icons/restaurant-71.png","id":"5aff78ba61793363a182d75cf9a73b46d11ffe6e","name":"MinouMinou Cafe","opening_hours":{"open_now":true,"weekday_text":[]},"photos":[{"height":3024,"html_attributions":["<a href=\"https://maps.google.com/maps/contrib/102581346941926757472/photos\">maou</a>"],"photo_reference":"CmRaAAAAQ1So3RTYeLcXhobBTkBUFqGdnrkF7sZ7ALwDnYaCbMMm7QG2suOh1b4oMRMjRtRK8UyiznIGvs4TO75kQ08xBPEk7oXsK9i-6q547tloqXwNc_0gmg7HWqpztOnwm81DEhBrnpTkOdRXVVtk2AblJ7ltGhRq_jDn0U_HvqKr_fwETP4rlxqbXg","width":4032}],"place_id":"ChIJtQZPuYqpQjQR0onctrjlGKI","rating":4.3,"reference":"CmRbAAAAQYiyQOoQnPwrrFIMHIE0c3cAMO1T6LwzTjzSAvOulVDS0-p15FK2G_F28Bc0twX7MJHw2c5APqgM5iyxjik1Em4MAx6vrgq2rrUSmov1PPqpCBgVuLoof9yaPsdWIU8OEhBDsxWcAUQry7qyfnS0EhjwGhQgdRSiXw1RbsaZBlHSmhKDML05uA","types":["restaurant","cafe","food","point_of_interest","establishment"]}],"status":"OK"}