{"html_attributions":[],"results":[{"formatted_address":"International Village Mall, 88 W Pender St #2035, Vancouver, BC V6B 6N9, Canada","geometry":{"location":{"lat":49.279963,"lng":-123.107376},"viewport":{"northeast":{"lat":49.28131282989272,"lng":-123.1060261701072},"southwest":{"lat":49.27861317010727,"lng":-123.1087258298927}}},"icon":"https://maps.gstatic.com/mapfiles/place_api/icons/cafe-71.png","id":"5f5d6540aebbfc4ca0f3253a170fcac7ee8bb916","name":"Catfe","opening_hours":{"open_now":false,"weekday_text":[]},"photos":[{"height":3464,"html_attributions":["<a href=\"https://maps.google.com/maps/contrib/104724293505033639331/photos\">林有希</a>"],"photo_reference":"CmRaAAAA8yf8xQJHuVmXY3IHKSxPaHmhgnPQst1rR96sDW_t9LgAcuglC0VbJwQsh9VkxtjPjPPUdUoB6vYwvuEtkD7qO3kJxzFDmO_Gy9ltIzEZEBxg45ecR-M3uW4PkGsvZRuREhCnCRz9gAjLaDOh91AoFo5MGhS0z3ulkzF_lRf7zP4VDdFb7je0HA","width":4618}],"place_id":"ChIJTaAzsntxhlQRLy3DRDaTMlU","rating":4.1,"reference":"CmRbAAAAPBAiCI4JVHnoFLGT4K_mt1rYX2I04DKMAP73i3LzpJJUSIndJbCfrWP9ysZMlZ40uGkBxHhCKCM3kfKK1eTZin9R2HTaCdC3Crg724E-gNNqXdVKZiMyzX5n2ajSG2F8EhCPEdH8Y9V5h-lUYrP-4JyVGhSWGJyHwett2PMF80C5uH2PpaAM0w","types":["cafe","store","food","point_of_interest","establishment"]},{"formatted_address":"515 Hamilton St, Vancouver, BC V6B 1T1, Canada","geometry":{"location":{"lat":49.28174079999999,"lng":-123.1118277},"viewport":{"northeast":{"lat":49.28304407989273,"lng":-123.1104046201073},"southwest":{"lat":49.28034442010728,"lng":-123.1131042798927}}},"icon":"https://maps.gstatic.com/mapfiles/place_api/icons/cafe-71.png","id":"1451da584acc73867b872ccad427d97dad328934","name":"Java Cat Cafe","opening_hours":{"open_now":false,"weekday_text":[]},"photos":[{"height":4160,"html_attributions":["<a href=\"https://maps.google.com/maps/contrib/111684095490326968465/photos\">Greg Taylor</a>"],"photo_reference":"CmRaAAAAg9tK1x-wbbmV2Ek4TfIf_5E-AFzdvV5vHaju5RexTbIZS4ygNx8vj0Vi-nN16b8UVZz9RD7_zxhhrIdZTUzOjPMQLHCI692QB6QbGo7ooA8zKLQkSwJ1htsYIcA_obqGEhDROeC3hVTg7Ms1T4XaBpWhGhRzRlJQXnDLYlfLcPr48JmnSLSVLA","width":3120}],"place_id":"ChIJl2gvQHlxhlQR_TNzgnfkO8o","rating":4,"reference":"CmRbAAAA7gVVJg8aUDFvBDA28zRXGbHwUV9nRZanBOsDSIUre9uCOZXA6IYx-V1S2YukCCN6siwnNXfH12rQdpk5KPHBK-QwqIlpdBaoAnPU1rVdva0so9JObc4Vg8pJluJ7zpj2EhBRC5vCs0IB-IqQms8djp_wGhS12NiSGFSCNXd8AYarjh7kJGl5Vw","types":["cafe","food","point_of_interest","establishment"]}],"status":"OK"}