{"html_attributions":[],"results":[{"formatted_address":"Japan, 〒460-0008 Aichi Prefecture, Nagoya, 栄3丁目9-10 三星ビル4F","geometry":{"location":{"lat":35.1675058,"lng":136.9044048},"viewport":{"northeast":{"lat":35.16885562989273,"lng":136.9057546298927},"southwest":{"lat":35.16615597010728,"lng":136.9030549701072}}},"icon":"https://maps.gstatic.com/mapfiles/place_api/icons/cafe-71.png","id":"4a8dd0c539e2bebffa9ec0f610030e0dece3487a","name":"キャットストリート","opening_hours":{"open_now":true,"weekday_text":[]},"photos":[{"height":1280,"html_attributions":["<a href=\"https://maps.google.com/maps/contrib/117482708533386742664/photos\">Jay Jason</a>"],"photo_reference":"CmRaAAAAhuFTbq4VM9bXL4QmIm1oLei4vd2DihdlE3vOovx_wOysXZAUZKMleThd7PCMx4GrTtqzjmCv-wElSBu4_eXmoSxGnABWar3KEbZtYjF-Iw6_qthNEpoyfTGyJaIUPCNZEhCj8-dtKJFwKut__uXx50ldGhR4GfSrQx-zXhIAdHCv9VdQtJovRQ","width":853}],"place_id":"ChIJY-YUbNNwA2ARxA8b3t03508","rating":4.2,"reference":"CmRbAAAAIcjWpRTF7KAdioDYtVoPl_oi8rXvNxE7I71e7SfwAqZu0odHFxqV8wbpvXqq0EQPAb-wdfi2DtNUmesdIehtzvUX_Rfyo5HImX6gs_ay-Sq0ge6gCX-ZB6MQDw4YE-qgEhA8C2l1I_eNjovwgEJ5-RdfGhRKj9Gb53PMniw-HRJiGjwvkahsng","types":["cafe","food","point_of_interest","establishment"]},{"formatted_address":"Japan, 〒460-0003 Aichi Prefecture, Nagoya, Naka Ward, Nishiki, 3 Chome−1−6, ソアービル錦2F","geometry":{"location":{"lat":35.1730474,"lng":136.902404},"viewport":{"northeast":{"lat":35.17439722989273,"lng":136.9037538298927},"southwest":{"lat":35.17169757010728,"lng":136.9010541701073}}},"icon":"https://maps.gstatic.com/mapfiles/place_api/icons/cafe-71.png","id":"addf643c6b155d7bb71b2879d76771464ebdde3d","name":"猫カフェひとやすみ","opening_hours":{"open_now":true,"weekday_text":[]},"photos":[{"height":2336,"html_attributions":["<a href=\"https://maps.google.com/maps/contrib/113598011772904260116/photos\">美穂鈴木</a>"],"photo_reference":"CmRaAAAAp2JQURYNGfwBGHl89OJQ56d3iETNaq5F3d_6ktI94PU7gIuIA0VSv2ngtcefd0MNNmLScMWcjnamSDryuJ8Wc8BEFGLv8ceT-ly_p9gsQRO9EQMNGaSg-2Blm_qujivpEhCil18VN6xdykiT1QCrNoExGhT6MGMkd8W9wfRVOCPuNNlFdUe1jQ","width":4128}],"place_id":"ChIJU13RSdV2A2ARV3zhjJgX4lI","rating":3.7,"reference":"CmRbAAAAkCBQU70N4uLdTDZZkSjKqegTsFtUwmccI6KxmdXep283IjUMZj6_YkXImy_yb_XS2K9PfVB_PwKqcKTXZlQEcmveF0lsnrnkweWEEvEghwrxQ0hyoFAJQZQpHhVYfF1OEhAzEyZjS5Rs5KXMGduqLUqYGhSOyF3t5nLufUPI0GisNQSokiHBFA","types":["cafe","food","point_of_interest","establishment"]},{"formatted_address":"〒460-0008, 3 Chome-9-10 Sakae, Naka Ward, Nagoya, Aichi Prefecture 460-0008, Japan","geometry":{"location":{"lat":35.1674371,"lng":136.9044179},"viewport":{"northeast":{"lat":35.16878692989273,"lng":136.9057677298927},"southwest":{"lat":35.16608727010728,"lng":136.9030680701073}}},"icon":"https://maps.gstatic.com/mapfiles/place_api/icons/cafe-71.png","id":"45c765080ae8d3168a91130805e9089b0195a328","name":"ひとやすみ","place_id":"ChIJY-YUbNNwA2AR8-JiKpfTbpM","reference":"CmRbAAAAyBb4UNd2PDjLVw3Nv60eI-Mj-x1WBDML57-edYSYr6bnfym9emRAdrLKNbjV1Q-ZwIpBvguGK374eo-_OjoPjJrNGqDHz4Qe4iFAjvdOYQWNZhdLaVq_oS0ijnUjYSDWEhAZTIIGRTVa2QkJG5H5QnO1GhTuAxE6O5sqRIuyNHpK_gAxZrKpoA","types":["cafe","food","point_of_interest","establishment"]},{"formatted_address":"2-14 Minamiwakecho, Showa Ward, Nagoya, Aichi Prefecture 466-0849, Japan","geometry":{"location":{"lat":35.1467582,"lng":136.9399653},"viewport":{"northeast":{"lat":35.14810802989273,"lng":136.9413151298927},"southwest":{"lat":35.14540837010728,"lng":136.9386154701073}}},"icon":"https://maps.gstatic.com/mapfiles/place_api/icons/generic_business-71.png","id":"6e9e27b322623ebad6c67d2aab6bf7d67298128d","name":"猫カフェねこまんま","opening_hours":{"open_now":false,"weekday_text":[]},"photos":[{"height":2160,"html_attributions":["<a href=\"https://maps.google.com/maps/contrib/115428971446915382625/photos\">倉橋恵美子</a>"],"photo_reference":"CmRZAAAApRJMpmCLzZeDL2ozX15YXzsa2FEkRbNuEOyjayhYYEUmDsGLZM6UktMORp7r6MzxP0Oeezdb4TIugRgWR-PQW5yyU4tKsD6nVxCKRaDDqLWwcGIirzSv3J6_6ppywukxEhDlshx1dnxZRhcXkvzgYt3fGhSC2X1G9UV8EGndIclRESAc1UvVZg","width":3840}],"place_id":"ChIJVXWguX16A2AR1qUE0qGnu4s","rating":3.8,"reference":"CmRbAAAARpEcoTBxvNsIxgHybRp2y7Qc8sr3-QT5TSiMGcQbDgoVK68asTKmcyVP5E0FPAgA7HL1KJUXyfqlFkA5S-QFEcreK1iWqZSxTZaZCc9CZqH0GwfqJUhVd9kTxosXeBNtEhDMuBdsUihccJVb3BlEt9fqGhTYvEE5dE41hkPD6i1Wh1YISASb5w","types":["amusement_park","cafe","pet_store","store","food","point_of_interest","establishment"]},{"formatted_address":"2 Chome-3-4 Chiyoda, Naka Ward, Nagoya, Aichi Prefecture 460-0012, Japan","geometry":{"location":{"lat":35.1592623,"lng":136.911495},"viewport":{"northeast":{"lat":35.16061212989273,"lng":136.9128448298927},"southwest":{"lat":35.15791247010728,"lng":136.9101451701073}}},"icon":"https://maps.gstatic.com/mapfiles/place_api/icons/cafe-71.png","id":"abcdf7c3d9851bb2623f5639c65e7db43858ddd9","name":"Cats Gallery","opening_hours":{"open_now":true,"weekday_text":[]},"photos":[{"height":2000,"html_attributions":["<a href=\"https://maps.google.com/maps/contrib/111402826768017640759/photos\">Kouichi Miwa</a>"],"photo_reference":"CmRaAAAAiAUBe5mYj0A6iEpCFUmscXln1X-aQ5whHg18qkLM-AY0ZWDGTX8aXSXuJ1SnMvA_4vdu1ol_a1qlJOc3fI0_HBNiR2IkMkYuDCmS0e45VxPExbqtTk6wBstcaX3njPa0EhAzlzrVYSY73HnLHhb78vjcGhR_Jr-gov2SlGpr7KcfsuU5rwkMag","width":3000}],"place_id":"ChIJfZmtbMhwA2ARIOiCm74OKE4","rating":4.4,"reference":"CmRbAAAAaCeAk4CbRJ_vCtOMW_AEp7CHHTn6s1xGROC5G0r2GgwS8lyw9HJpUKzs2ykeDIgdvvJSsFzc5sFaIyCGnstYCWRLBwupUH0GuoUZsz_ekN7u6Vbmnh9NHZ-UsqA3jf_YEhD6-pikfw0CafgYjz0a0LyVGhTPqKKZImntEW1OQ_h9nDSL4mLXug","types":["cafe","food","point_of_interest","establishment"]},{"formatted_address":"Japan, 〒460-0011 愛知県名古屋市中区 大須3丁目45-2 ランドプール大須1F","geometry":{"location":{"lat":35.158083,"lng":136.90476},"viewport":{"northeast":{"lat":35.15943282989272,"lng":136.9061098298927},"southwest":{"lat":35.15673317010728,"lng":136.9034101701072}}},"icon":"https://maps.gstatic.com/mapfiles/place_api/icons/generic_business-71.png","id":"0095a99b7775b7eb9c8229752c6aff1260d2122c","name":"めいどりーみん 大須招き猫前店","opening_hours":{"open_now":true,"weekday_text":[]},"photos":[{"height":3024,"html_attributions":["<a href=\"https://maps.google.com/maps/contrib/103867244754721405711/photos\">A Google User</a>"],"photo_reference":"CmRaAAAAY4eF4KDzhNET4FCPGcHJPtApzIwf7uQv6OjrySzdocLixHFwNAYYEcdhWHWBQ9Mc5ZHvOhf6iq887tQDKC4ifnb6DIjEPifmm6SzK8_ZH1ZisEjf54PJLOzZS4gOf70NEhBudHLMsf2VRs7yOUs-qgH-GhRDJN8Z8kliQcPQzuSOTq0vKaTuLQ","width":4032}],"place_id":"ChIJCaxxDstwA2ARxHxp-qZeIfc","rating":4.5,"reference":"CmRbAAAAsR7wNOgef5ItHicWUQgO5LNX69QjLlzi9T3ekV_RxkU8jdMAmqsN-XJPh8lJMYKnf8xixIXiomRbMbGKqyJxNIjOf6ngh_L_2RLSvO8h-qVi2xt1Q1_vXFN_usuB0Wn_EhCZoHJq2abyytqZ4csIoGaHGhTN1Izje89w9lOkLArkUW2QBzhsbw","types":["cafe","restaurant","food","point_of_interest","establishment"]},{"formatted_address":"Japan, 〒4600008 愛知県名古屋市中区栄3丁目32番6号 BECOME SAKAE","geometry":{"location":{"lat":35.162917,"lng":136.907551},"viewport":{"northeast":{"lat":35.16426682989272,"lng":136.9089008298927},"southwest":{"lat":35.16156717010728,"lng":136.9062011701073}}},"icon":"https://maps.gstatic.com/mapfiles/place_api/icons/cafe-71.png","id":"24c166745c12b54f9ecd1320524fd4fffe48aa05","name":"猫カフェMoCHA 名古屋店","opening_hours":{"open_now":true,"weekday_text":[]},"photos":[{"height":1365,"html_attributions":["<a href=\"https://maps.google.com/maps/contrib/108851711562755937215/photos\">A Google User</a>"],"photo_reference":"CmRaAAAAWNfLmjsIy86jMGJRsu5J6mWYvgYmPBi99OgB5sL8UxEls55vIH0azi6s4TyRWS-RVY_jsKtuZenuNesxW2m2aYg1RE1vdMQs3lMNKwm2cVG8hjuhRVXdF0TOarOPgUWEEhDN0m6BKQWS1WuCkIDnXfMzGhRZBWaKGB6z1QCi_nlA_en6ZrfpvQ","width":2048}],"place_id":"ChIJsZjgKsxwA2ARaKFZfcMjU00","rating":3.8,"reference":"CmRbAAAARCSLIlOio80jAUMcC44fsJGOs1GVTMF6awLgaA-RIuT_4pmaXqpwBmnh7TObHcAlrqskAbNEJ_tA284_rHwDh-kTEtHcll61whfzxEUTAbHbUumpGaQdjjlODmrHikhREhBg6Kv0wmGTo8u2qSvOlw2XGhTTifzNGlooglXLuyiXtdIiMec0GQ","types":["cafe","food","point_of_interest","establishment"]},{"formatted_address":"Japan, 〒460-0011 愛知県名古屋市中区 大須４丁目１−２１ NOVAビル 1F","geometry":{"location":{"lat":35.16169,"lng":136.907811},"viewport":{"northeast":{"lat":35.16303982989271,"lng":136.9091608298927},"southwest":{"lat":35.16034017010727,"lng":136.9064611701072}}},"icon":"https://maps.gstatic.com/mapfiles/place_api/icons/generic_business-71.png","id":"af54488a1edc5000ca563b81b52a504e085ce955","name":"Yaba coffee shop Nagoya head office","opening_hours":{"open_now":true,"weekday_text":[]},"photos":[{"height":2160,"html_attributions":["<a href=\"https://maps.google.com/maps/contrib/113111251911279175121/photos\">A Google User</a>"],"photo_reference":"CmRaAAAAOv2LESGbHypbRdEy8YkVvUN9H2evEmugswsshQAJCSdxvGsf1xpwjzfNOWWo4VD8lBDRdlG3cS_vyFjkyMUtluT0jPrYCVpxumuXxt9mqAkVzjS_D5H8_terEn1bRCQwEhAIOzWsvUpSSF8dfVOFSo_xGhTDggLMsIuTHk-0eev30FivGnfB6g","width":3840}],"place_id":"ChIJZSG1oM5wA2ARNbtDZNY2IZg","rating":3.8,"reference":"CmRbAAAAJi_7NRa7vl6RgGRWCG1zX3VLBzVHvgkXP8jMueQGDvaf6tcRh_5BnD2bTPOsJkudHMGH3_V79Df3-dOZ7PTzN4sVg5wpl1cmddlVPESTmRSHCqpPu1Vfd6awG2pG2CJ3EhBNQzBfmbdAwXoc8Rhqmv01GhSpqiPkEoq0Qh8YA0wg79amMlY04w","types":["cafe","store","restaurant","food","point_of_interest","establishment"]},{"formatted_address":"Japan, 〒460-0011 Aichi Prefecture, Nagoya, Naka Ward, Osu, 4 Chome−1−71, 矢場町中駒ビル３階","geometry":{"location":{"lat":35.161373,"lng":136.906587},"viewport":{"northeast":{"lat":35.16272282989272,"lng":136.9079368298927},"southwest":{"lat":35.16002317010727,"lng":136.9052371701073}}},"icon":"https://maps.gstatic.com/mapfiles/place_api/icons/cafe-71.png","id":"be8331089d9584038144e97f4cdfbbbc205f9a2c","name":"うさぎとCafe","opening_hours":{"open_now":true,"weekday_text":[]},"photos":[{"height":2160,"html_attributions":["<a href=\"https://maps.google.com/maps/contrib/110162791052409230466/photos\">A Google User</a>"],"photo_reference":"CmRaAAAALy6kT1eMCL83LvDIYz96apcbD_t8QQE7HiHI21u6EspkBQN5LDlWiiCmKjZ9xpmVfwLB3KYYVJ0nbaNOtjp1vURHh1Bfafh1C4Ge6xmNy_6A9UJcIV5DzICxSRYikw6PEhDwCn2-gqgefINF4G2S1QMYGhTYqTSEp59O7hTQXg2-opU8TuZpNA","width":3840}],"place_id":"ChIJS-XzRShxA2ARh3X2x61EEUY","rating":4,"reference":"CmRbAAAAV4d2TmpyLKKuYMMd5kdoUauNu2Ar0VK2oOJhTVVliNF4NYu-OMyypYpxUYEkWmqktB8f6fPn_e-Tn5EXQniF0k0ahHcIcNyuoDUXmjyimmNzfNQn14rODeSfu3Xf8WQBEhADBfcp8axKF2n-ZGbjHcYYGhQQJlTmIuvIcwSOvYfSwn7Q-9RqIw","types":["cafe","pet_store","store","food","point_of_interest","establishment"]},{"formatted_address":"4 Chome-17-27 Sakae, Naka Ward, Nagoya, Aichi Prefecture 460-0008, Japan","geometry":{"location":{"lat":35.1662372,"lng":136.9110575},"viewport":{"northeast":{"lat":35.16758702989272,"lng":136.9124073298927},"southwest":{"lat":35.16488737010727,"lng":136.9097076701073}}},"icon":"https://maps.gstatic.com/mapfiles/place_api/icons/cafe-71.png","id":"b6c03ad2e0b0e796de51fc91d954c85681911718","name":"Hot Cats","opening_hours":{"open_now":false,"weekday_text":[]},"photos":[{"height":3840,"html_attributions":["<a href=\"https://maps.google.com/maps/contrib/102378883811462331721/photos\">A Google User</a>"],"photo_reference":"CmRaAAAAj-t7BaiQhiPJsJamUUSDoG8U1vg-DqvJatMZXHRwP8ZD50cEIszHJFMCOP3FfbmrEOEPcHPbuiC-mw5_XFDKWcMU1CMQIUla6ayIXqUzo-dwOdv__-M_7ROpMX0tMCHNEhCc2WdyIyKDWXQGDsNiur98GhS30hkK_yXCsrJCCh8XiII5uMIFQw","width":2160}],"place_id":"ChIJEROu3M9wA2ARc8YQIUWsZP4","rating":4.8,"reference":"CmRbAAAA9se_gUcDYBXQn_tOXnYx_vUmHLFurxE38q5Z9RyvFVNXfDGHDcpX-Qd2-Hluy7ETIJuWD_6NcUrNlWRxhyNMpIWbilVRSAiZHHUXytKu-0thjQaAXkm6fpIztKwwt24tEhAiTSDlUi8YriXLiKH5a_GPGhQuh6OHtgND1_wU-vY5f2LxtsFQyg","types":["cafe","food","point_of_interest","establishment"]},{"formatted_address":"Japan, 〒460-0011 Aichi Prefecture, Nagoya, Naka Ward, Osu, 4 Chome−1−１７","geometry":{"location":{"lat":35.1613537,"lng":136.9065491},"viewport":{"northeast":{"lat":35.16270352989272,"lng":136.9078989298927},"southwest":{"lat":35.16000387010728,"lng":136.9051992701073}}},"icon":"https://maps.gstatic.com/mapfiles/place_api/icons/cafe-71.png","id":"49c4aff33ac291c6706cfcb71ee49a1089341f46","name":"Usagito Cafe","opening_hours":{"open_now":true,"weekday_text":[]},"photos":[{"height":5312,"html_attributions":["<a href=\"https://maps.google.com/maps/contrib/111078762296318399328/photos\">Ashley Chan</a>"],"photo_reference":"CmRaAAAAHQw_2jYNClDSrQPoE-xkByNKj-03a8EPIBj4pchbN5WZNkQk2bg3brcreZJwi5AioqoK2ny1zmwXkoSSnNScgGtLPZfWWUwvu3NepaIUVa8p8ynAaemb_5Yp8_WgRq_xEhBwaWGkAb4Zs7bhGDQibWAYGhSPw8rpPAZE4bYoEGMqK0u40jcbTg","width":2988}],"place_id":"ChIJg_c_FcxwA2ARzr1izukmA5M","rating":3,"reference":"CmRbAAAAJ75cXjUG7FJZnOyPcP6Q1FHJKdqoXRb_6VFssUaQkFzf9QUoUP9jlUQvacKMsCMVV7Peo7tZS1DOUDZYRuKRSvpkt7ThnhEh99-MCY7OyeWcqa2P_ZfkXQ0vt25-8iFREhAnTy9H5a4S5pS-EQryrsceGhT7HvBQMUdXwD-I2nlO-0VYfjQE0w","types":["cafe","food","point_of_interest","establishment"]},{"formatted_address":"2 Chome-6-22 Osu, Naka Ward, Nagoya, Aichi Prefecture 460-0011, Japan","geometry":{"location":{"lat":35.1606876,"lng":136.9015943},"viewport":{"northeast":{"lat":35.16203742989272,"lng":136.9029441298927},"southwest":{"lat":35.15933777010727,"lng":136.9002444701073}}},"icon":"https://maps.gstatic.com/mapfiles/place_api/icons/cafe-71.png","id":"33764c10ea169948f600c4ca8d06a41b6e7f6b4a","name":"KANNON COFFEE","opening_hours":{"open_now":true,"weekday_text":[]},"photos":[{"height":1536,"html_attributions":["<a href=\"https://maps.google.com/maps/contrib/106307203697370154735/photos\">A Google User</a>"],"photo_reference":"CmRaAAAAjlOk89VtR9epX-j4xTRJxN8Pxeqc6tpZ8aCtfItWlxLWCcHVpVhbYUYPSBBF9lbid1lPGiAssWAZvHa7GEif_bIBXVXj70XEQtj3SnhhpqMN9XTcjtJgWP6_Wht6n-UQEhDXlKaqB6NwAmFRsHTLm8L1GhQhUt1Vx4jrOZMVuKjaJJfIJJB2tQ","width":2048}],"place_id":"ChIJQfta5zJ3A2AR-E8I-LrGBz0","rating":4.2,"reference":"CmRbAAAAvPfB329IWxrXBInS5-a90baKKguKNELCXKZMrlH8iFpM7FPZ7d0EUdVuoRYTHuRTmWvTd9i64kcav9aE4UTIRA3S1E8U9WuW2c-22BQNF69MCOHUaXpKz2yY-AxdZ4wyEhDrY8e1EcTRCiiIztobgIzUGhRbVgW0u6ejX8QwMb7SESCC-cpdgw","types":["cafe","store","food","point_of_interest","establishment"]},{"formatted_address":"Japan, 〒464-0850 Aichi Prefecture, Nagoya, Chikusa Ward, Imaike, 4 Chome−16−27, くどうビル","geometry":{"location":{"lat":35.1688969,"lng":136.9397785},"viewport":{"northeast":{"lat":35.17024672989272,"lng":136.9411283298927},"southwest":{"lat":35.16754707010728,"lng":136.9384286701072}}},"icon":"https://maps.gstatic.com/mapfiles/place_api/icons/cafe-71.png","id":"5e07f51836aa6d12a8432d85e3928c07fc4207f9","name":"Protection Cat Cafe Hemingway","opening_hours":{"open_now":true,"weekday_text":[]},"photos":[{"height":960,"html_attributions":["<a href=\"https://maps.google.com/maps/contrib/105001432623205997630/photos\">A Google User</a>"],"photo_reference":"CmRaAAAAdOARxTEuNMQVNhHBv9HQGEhKeZEWA53djicVuMWXDtxadnCuQSo0AZYdSldFImmcJL-yt8h8FUSgApD9gdhpOhVktGaxxU9WBPicKyZWPlOIJb8ONpJbj03ae-6nr7ANEhBkj-UvcU7GBK3uwotoxABpGhS4UdTHYmE34DbyacBUG2fhViatkA","width":960}],"place_id":"ChIJSRqe5YpwA2ARBuzgY8Jvbcc","rating":4.2,"reference":"CmRbAAAACO2tBYCQdEFe7JFB0fxnSysNvZuKyVj85qd-JK3Ff46FqnHDZ_CDdmuX6AsEtkhaJUn6_7HdbtIutfN6yKhrwxH9EEQpBh7hUCg6H7OiQwLxsWV9oggzrVnp7JxXNbSbEhBerA0xJJ0kec85zFFH6r4ZGhRbWT1kpH4Qgyvzpmv-HtvpRalu6g","types":["cafe","store","food","point_of_interest","establishment"]}],"status":"OK"}