{"html_attributions":[],"results":[{"formatted_address":"113 Main St, Parkville, MO 64152, USA","geometry":{"location":{"lat":39.1895877,"lng":-94.6834851},"viewport":{"northeast":{"lat":39.19096837989272,"lng":-94.68227217010728},"southwest":{"lat":39.18826872010728,"lng":-94.68497182989273}}},"icon":"https://maps.gstatic.com/mapfiles/place_api/icons/cafe-71.png","id":"96413bbc179376115f4e4a570a05f33e799cc9cc","name":"Whiskers Cat Cafe","place_id":"ChIJc6ArzKv1wIcRqjCtaWr5_g4","reference":"CmRbAAAAbWj0ZG6rEEU2YV6qHsay4Um1oH_mt9YSwA51NRoyxblzAksIhlw0euhajB-yLjKWQmfaKY21otsSju5HTdESWTZwP30Klh8FnTg--rpWIrFAQ1LY6yFd3nV46IxsABVzEhAe9zb4LUYw3cwX85oLKHr1GhSW0aOQuoV0G0fkNfGku5LSpOsSTg","types":["cafe","food","point_of_interest","establishment"]},{"formatted_address":"810 1/2 E 31st St, Kansas City, MO 64109, USA","geometry":{"location":{"lat":39.0707516,"lng":-94.5747708},"viewport":{"northeast":{"lat":39.07210142989273,"lng":-94.57342097010728},"southwest":{"lat":39.06940177010728,"lng":-94.57612062989271}}},"icon":"https://maps.gstatic.com/mapfiles/place_api/icons/cafe-71.png","id":"67166f5eff08dc4f6104a951f5100abe5d0927a8","name":"Kitty's Cafe","opening_hours":{"open_now":false,"weekday_text":[]},"photos":[{"height":2268,"html_attributions":["<a href=\"https://maps.google.com/maps/contrib/114258784521342767129/photos\">Mark Gatson</a>"],"photo_reference":"CmRaAAAAMbsRvWtVOTIBp2pINAM5yu4Ixc35ULv34qRGjxlddcQgZWG84vwo7oT5YeWL2EmCZyavJnOwrppF70vnoUS1axazWg4PqYPnGt1dHtI3ISpF3SDlbczHiRu6LEvhSVocEhDcpRYa3Ckj4mBvTPMv8IPdGhS1tNYYWHak_kreDcWO5WXPTohsYQ","width":4032}],"place_id":"ChIJvxpscBvwwIcRcA7wy9iS4Ws","price_level":1,"rating":4.7,"reference":"CmRbAAAA09rFFOHm5KFkxxRo-aom8w6c_4sY5IinAud-uLDzXN_BpEKTR3-QRXhqh1O37dF8FywWsqokjIVQ1SNc076cDsFTSUh861BMbencT3AQvbq-yvjv0MZrDXxuR0amZTZSEhAVW9WjTQB2xkUqjAonA3oLGhSOiXuONkhWzmBnn_0shhc57zBYhw","types":["cafe","store","restaurant","food","point_of_interest","establishment"]}],"status":"OK"}